end_station_name,member_casual,end_lat,end_lng,total_trips
McClurg Ct & Illinois St,casual,41.890410601202866,-87.617560782521522,6734
Ogden Ave & Congress Pkwy,member,41.875004330275232,-87.673268453822629,1090
Financial Pl & Ida B Wells Dr,casual,41.875039421488879,-87.633082736355178,1320
Damen Ave & Division St,member,41.903281724196816,-87.678422283782837,4783
Canal St & Monroe St,member,41.881701018016606,-87.639508003361712,3173
Dearborn St & Van Buren St,member,41.87629418459796,-87.629186961180309,2649
Halsted St & Roosevelt Rd,member,41.867322908597771,-87.648615463927328,2458
Michigan Ave & Oak St,member,41.900979343295027,-87.623792463878246,8179
Lake Park Ave & 35th St,member,41.831279785515591,-87.6087842026996,1253
Peoria St & Jackson Blvd,member,41.877628822587219,-87.649598012751056,7309
Michigan Ave & 18th St,member,41.857818844858,-87.624562152618111,5481
Mies van der Rohe Way & Chicago Ave,member,41.896916540239744,-87.621761047697859,8760
Wabash Ave & Grand Ave,casual,41.891466018222438,-87.6267609162111,9695
Franklin St & Illinois St,member,41.891013090745062,-87.635485019297036,7818
Clinton St & Lake St,member,41.885611871421808,-87.641803016110444,9828
Clinton St & Lake St,casual,41.885620643225586,-87.641789352303988,2908
Wabash Ave & 16th St,member,41.860406107309636,-87.625810325520845,5568
Wabash Ave & Wacker Pl,member,41.886921852211792,-87.626047516569841,4476
Loomis St & Jackson Blvd,casual,41.8779379906189,-87.6620059036306,1368
Clinton St & Roosevelt Rd,member,41.867121053276733,-87.641094041043189,4682
Orleans St & Merchandise Mart Plaza,member,41.8882031230834,-87.636394763285011,6348
Fairbanks Ct & Grand Ave,member,41.891831917285515,-87.620588948647764,10219
Millennium Park,member,41.881025354119096,-87.624091101720381,5956
Larrabee St & Menomonee St,member,41.914686146728357,-87.643311760850423,3026
Hermitage Ave & Polk St,member,41.871516074658416,-87.669878203725531,3391
Indiana Ave & Roosevelt Rd,member,41.86789519188423,-87.623026205031024,10687
Lake Shore Dr & Ohio St,member,41.892564484317781,-87.614536299899171,6281
Michigan Ave & 8th St,member,41.872763508202532,-87.623982724926833,3759
Wood St & Taylor St,member,41.869182551358804,-87.671325812803744,3169
Wentworth Ave & Cermak Rd (Temp),member,41.853000028463,-87.630599874762808,527
Aberdeen St & Jackson Blvd,member,41.877717374669096,-87.6547879522808,6356
Dearborn St & Monroe St,member,41.881306662502553,-87.62954812287694,10115
Clinton St & Tilden St,member,41.8759059055778,-87.640795668520965,2247
Milwaukee Ave & Grand Ave,member,41.891584524931993,-87.648377963149755,8824
State St & Van Buren St,member,41.877197057572424,-87.627832401906844,3636
Canal St & Jackson Blvd,member,41.877243161981987,-87.639395679519509,2775
Halsted St & Polk St,member,41.871824603508,-87.646643790602,4618
Wells St & Huron St,member,41.894724875562112,-87.63435366873081,13565
Ashland Ave & Grand Ave,casual,41.891078730274685,-87.666615768166764,1711
Franklin St & Monroe St,member,41.880319171003258,-87.635238719835385,8263
Canal St & Madison St,member,41.882100850637819,-87.639771706900262,6193
Wolcott Ave & Polk St,member,41.871273238035329,-87.673678997533074,6756
Michigan Ave & 14th St,member,41.864124295640934,-87.623746367380519,6584
Larrabee St & Kingsbury St,member,41.897764327644474,-87.642897045341869,8877
Ashland Ave & Augusta Blvd,member,41.8996271945234,-87.667737914250537,3518
Clinton St & Washington Blvd,member,41.883406525127249,-87.641188436704851,12576
Western Ave & Monroe St,casual,41.879803023980521,-87.686075375777222,820
Wells St & Polk St,member,41.872617923190504,-87.633509975923587,5531
Wabash Ave & Roosevelt Rd,casual,41.867224101273209,-87.62596574906766,8849
Wabash Ave & Roosevelt Rd,member,41.867220254675047,-87.625975028242479,13868
Clark St & 9th St (AMLI),casual,41.870830557588711,-87.631203977740839,2104
State St & Randolph St,casual,41.884730480183244,-87.627734414048462,6536
State St & Randolph St,member,41.884733768335209,-87.627728026495234,7127
Columbus Dr & Randolph St,member,41.884681213288253,-87.619545716703669,9906
Canal St & Adams St,member,41.879305086184168,-87.639893747278464,12891
Canal St & Adams St,casual,41.879305889575093,-87.6398938578722,2024
Federal St & Polk St,member,41.872103708890357,-87.629532264610916,8719
Halsted St & Maxwell St,member,41.86490315490591,-87.647076617159513,2976
Clark St & Chicago Ave,member,41.896752775920518,-87.630890736012418,7179
Morgan St & Lake St,member,41.885506214950063,-87.652287628308585,9350
Desplaines St & Jackson Blvd,casual,41.878294267680651,-87.6438988762675,2597
Dearborn St & Erie St,member,41.893995356544693,-87.629326734627952,16041
Damen Ave & Chicago Ave,member,41.895764389159211,-87.677191613482975,6371
Wood St & Hubbard St,member,41.889903449169594,-87.671493196108045,1987
LaSalle St & Washington St,member,41.882724153768415,-87.632535383835986,6267
Damen Ave & Grand Ave,member,41.8912896874985,-87.67685869187153,2565
Clinton St & Madison St,member,41.882216009617828,-87.641091766101212,14383
Clark St & Randolph St,member,41.88460124788633,-87.631884895347511,7343
Lake Shore Dr & Wellington Ave,casual,41.936690812330831,-87.63683079307539,8598
Ashland Ave & Division St,casual,41.903456639854454,-87.6677356066051,5955
Sheridan Rd & Loyola Ave,member,42.001041257833869,-87.661210888216672,2420
Streeter Dr & Grand Ave,casual,41.89228053023426,-87.612045803920566,28202
Sheffield Ave & Webster Ave,member,41.921545849643145,-87.653802015303313,7286
Wood St & Augusta Blvd,member,41.899189316807515,-87.672179459953057,3550
Milwaukee Ave & Rockwell St,casual,41.920248791120216,-87.692770386214136,1282
Broadway & Sheridan Rd,casual,41.952812315320905,-87.649991090476163,3220
Walsh Park,member,41.91460832496783,-87.66797314657515,2331
State St & 33rd St,member,41.834740543681406,-87.625799002400555,3888
Indiana Ave & 103rd St,casual,41.70716663429387,-87.618445833382751,48
Loomis St & Archer Ave,casual,41.841634989524884,-87.657435359259935,387
Halsted St & Polk St,casual,41.871834686577181,-87.646626474720364,745
Indiana Ave & 31st St,member,41.838846752514563,-87.621861177607215,1889
Damen Ave & Thomas St (Augusta Blvd),casual,41.901325420405357,-87.677414114521852,1694
Blackstone Ave & Hyde Park Blvd,casual,41.802580523961666,-87.590374814341516,1878
Clark St & Schiller St,casual,41.907991480252484,-87.631505793086859,5545
Wells St & Concord Ln,member,41.912121809545425,-87.63467470097531,15414
Columbus Dr & Randolph St,casual,41.884699855442655,-87.619531247662664,6988
Clark St & Armitage Ave,casual,41.918298088042633,-87.636291670719061,9007
Buckingham Fountain,casual,41.876504316937748,-87.620533707949335,9016
Michigan Ave & Washington St,member,41.88399810420357,-87.624697017990158,8886
Wells St & Hubbard St,casual,41.889917828232271,-87.634287286038173,5293
Rush St & Superior St,member,41.895768249753623,-87.625982732752078,8165
California Ave & Byron St,member,41.9521643787779,-87.69806779716275,1270
Dearborn St & Van Buren St,casual,41.876289600746965,-87.629203625210053,1785
Stetson Ave & South Water St,member,41.886782919642151,-87.622363825648293,4229
Artesian Ave & Hubbard St,member,41.889497667334943,-87.688085968492,1884
St. Louis Ave & Fullerton Ave,casual,41.924826911067164,-87.714470047916322,204
Southport Ave & Wrightwood Ave,member,41.928781035641542,-87.663891831108117,4419
Lake Shore Dr & Monroe St,casual,41.880963392675042,-87.616740035000873,19090
Clark St & Lake St,casual,41.886034835235719,-87.6309012419851,4633
Lake Park Ave & 53rd St,casual,41.799528694001168,-87.586459156992234,2627
Lakeview Ave & Fullerton Pkwy,casual,41.925868732563089,-87.638981744627444,7833
Rush St & Hubbard St,member,41.8901864429639,-87.6262114838903,4728
Western Ave & Winnebago Ave,member,41.915518645208643,-87.6870156235409,4769
Rush St & Cedar St,casual,41.902300038257906,-87.627720803387064,6528
Broadway & Sheridan Rd,member,41.95281981811651,-87.649989729768578,6265
Western Ave & Walton St,member,41.898414367557017,-87.686587299430258,3712
Southport Ave & Wellington Ave,casual,41.935713922441131,-87.66355237732111,2944
Southport Ave & Wellington Ave,member,41.935729477498519,-87.663575603485313,6207
Southport Ave & Clybourn Ave,member,41.920780312941815,-87.663706614962862,3678
Clybourn Ave & Division St,member,41.904603011116521,-87.640560414203108,4093
Kingsbury St & Erie St,member,41.893800702513971,-87.641683512142663,11616
Broadway & Waveland Ave,member,41.949076629612485,-87.648632883912285,10795
Broadway & Cornelia Ave,member,41.945518843363381,-87.646429058324486,11316
Southport Ave & Roscoe St,member,41.943720300299773,-87.6640044578415,8895
Halsted St & Roscoe St,casual,41.943681871690529,-87.648957578152121,6144
Southport Ave & Roscoe St,casual,41.94372823262411,-87.664005011563361,5405
Clark St & Wellington Ave,member,41.93649244910479,-87.647539290717091,10545
Lincoln Park Conservatory,member,41.9239242973002,-87.635824923757511,4886
Wood St & Milwaukee Ave,member,41.907661841991967,-87.67256014460888,6891
Rush St & Cedar St,member,41.902304632388827,-87.62772388904591,8169
Wilton Ave & Diversey Pkwy,member,41.932410446333947,-87.65271194411865,7674
Southport Ave & Wrightwood Ave,casual,41.928779301957192,-87.66389794055047,2725
State St & Kinzie St,casual,41.889185662185689,-87.62780022655808,6509
Clark St & Newport St,member,41.944528309269863,-87.65468446099969,6282
Clark St & Lincoln Ave,casual,41.91569550830944,-87.634607507046837,9768
Halsted St & Willow St,member,41.913866675267244,-87.6487579598845,5426
Sheffield Ave & Waveland Ave,member,41.949374987853425,-87.654516289138982,7286
Clark St & Schreiber Ave,member,41.999265868031,-87.671380509751529,1644
Dearborn Pkwy & Delaware Pl,member,41.89896725557837,-87.629914635400425,12175
Ashland Ave & Grace St,member,41.950686751530881,-87.668692861288619,2504
Sheffield Ave & Wellington Ave,member,41.93627507138,-87.652677664787774,9314
Sheffield Ave & Wellington Ave,casual,41.936278829302452,-87.652675354307576,4879
Elston Ave & Wabansia Ave,member,41.912917868770471,-87.664172873426438,1933
Lincoln Ave & Belmont Ave,member,41.939370386420919,-87.668374779174542,5290
Avers Ave & Belmont Ave,casual,41.9394000239486,-87.723569155568512,856
Lincoln Ave & Diversey Pkwy,member,41.932209447868388,-87.658602339177236,6474
Dayton St & North Ave,member,41.910587724526621,-87.649414297428521,5394
Sheffield Ave & Willow St,casual,41.9137013200943,-87.652851666183068,2757
Clark St & Columbia Ave,member,42.004448434875023,-87.67239172974017,924
Wilton Ave & Belmont Ave,member,41.9401728198811,-87.653025463291613,11101
Ashland Ave & Wellington Ave,member,41.9360726144422,-87.6698003319881,3469
Halsted St & Dickens Ave,member,41.91993583021582,-87.648826742585939,8340
Southport Ave & Waveland Ave,member,41.948160828345692,-87.663930874830413,8354
Southport Ave & Waveland Ave,casual,41.948144364294031,-87.663931440238656,4861
Ashland Ave & Chicago Ave,member,41.895980869327609,-87.667732883612246,4422
Clark St & Montrose Ave,member,41.961585964274065,-87.666043113811853,3065
Racine Ave & Fullerton Ave,member,41.9255786461115,-87.658400533309447,5860
Sheffield Ave & Fullerton Ave,member,41.9256032034748,-87.653701638944128,6395
Damen Ave & Pierce Ave,member,41.909395311927469,-87.677693625646825,9639
Broadway & Barry Ave,casual,41.937603733072663,-87.644099597437176,8270
Broadway & Barry Ave,member,41.937611757402479,-87.644099311297182,15790
Hoyne Ave & Balmoral Ave,casual,41.979860433010487,-87.681918111783688,413
Ravenswood Ave & Lawrence Ave,casual,41.96908277891481,-87.6741943956846,2101
Clark St & Elm St,member,41.902968449730182,-87.631298227186591,20569
Lake Shore Dr & Wellington Ave,member,41.9366971403868,-87.636837039548425,12487
Clark St & Wrightwood Ave,member,41.929534917797824,-87.6431219237635,10756
Burling St (Halsted) & Diversey Pkwy (Temp),casual,41.933127656453955,-87.647761337805164,2758
Lincoln Ave & Fullerton Ave,member,41.925902880563989,-87.649268703986465,10544
Lincoln Ave & Fullerton Ave,casual,41.925904715824458,-87.649260143806586,5818
Lincoln Ave & Waveland Ave,member,41.948801842563455,-87.675281163362712,3178
Seeley Ave & Roscoe St,casual,41.943371788198633,-87.679586006835535,1658
Lake Shore Dr & Diversey Pkwy,casual,41.932589673702964,-87.636428111775189,7864
Lake Shore Dr & Diversey Pkwy,member,41.932583049202364,-87.636420790553984,9549
Larrabee St & Webster Ave,member,41.921816730903323,-87.644124003633038,12524
Kimball Ave & Belmont Ave,casual,41.93936077132318,-87.711528393268779,723
Wells St & Elm St,member,41.903204387117626,-87.634331060785854,12640
Wells St & Elm St,casual,41.903198441028238,-87.634342827743183,7871
Larrabee St & Oak St,casual,41.900217962488526,-87.642965387434728,1349
Morgan St & Polk St,member,41.871744313967874,-87.651023789981764,5663
Ashland Ave & Division St,member,41.903462660111835,-87.6677445976959,10908
Federal St & Polk St,casual,41.872100943879744,-87.629530147840839,4625
Warren Park West,member,42.0017906988604,-87.688811799715111,585
Warren Park West,casual,42.001711100902178,-87.688764796533718,702
Sheridan Rd & Greenleaf Ave,casual,42.010572038212729,-87.662408458494028,1370
Clark St & Lunt Ave,member,42.009074941900927,-87.674197999062912,1245
Western Ave & Howard St,member,42.018887827409166,-87.690027041074273,422
Kedzie Ave & Foster Ave,casual,41.975675279710153,-87.7092691310145,575
2112 W Peterson Ave,member,41.991128264780833,-87.683591921253822,654
Oakley Ave & Touhy Ave,member,42.012323004048582,-87.688222506747636,247
Sheridan Rd & Columbia Ave,casual,42.004581684918726,-87.66142440887289,1251
Central St & Girard Ave,casual,42.064306533060666,-87.686154156441717,489
Central St & Girard Ave,member,42.064306194323144,-87.686154699235829,916
Central St Metra,casual,42.063620949342621,-87.698714356535191,431
Central St Metra,member,42.063624978712362,-87.698709789200421,963
Sheridan Rd & Noyes St (NU),member,42.058220806116566,-87.677422210617422,1733
Chicago Ave & Sheridan Rd,member,42.050493036512435,-87.677814703808636,1059
Benson Ave & Church St,casual,42.048196984369014,-87.68348669888762,1738
Evanston Civic Center,member,42.057032360784305,-87.686566914117634,425
Chicago Ave & Washington St,casual,42.0325092086331,-87.679090195976556,1251
Phillips Ave & 79th St,member,41.751810689655166,-87.565205879310355,58
Phillips Ave & 79th St,casual,41.751818194954133,-87.5652080825688,218
Jeffery Blvd & 71st St,casual,41.766772968545673,-87.576482390110769,498
Damen Ave & 59th St,casual,41.786019548872183,-87.6741677443609,133
Indiana Ave & Roosevelt Rd,casual,41.867901385683439,-87.623034444188562,12808
Calumet Ave & 71st St,casual,41.7655694831651,-87.616859420179054,121
LaSalle St & Jackson Blvd,member,41.878248526224013,-87.631911103617441,7169
Lake Shore Dr & North Blvd,casual,41.911690601357755,-87.626794967588836,13699
Ellis Ave & 58th St,member,41.788737163117339,-87.601316857215281,3287
Ogden Ave & Race Ave,member,41.891795199392455,-87.658765313290729,5322
Shedd Aquarium,casual,41.8672098355858,-87.61535279076179,7656
LaSalle St & Illinois St,casual,41.890773888375257,-87.631693461377182,6598
Rush St & Hubbard St,casual,41.890177452808835,-87.62620373369279,2504
Blackstone Ave & Hyde Park Blvd,member,41.802596563269731,-87.590394012450929,2463
Damen Ave & Cullerton St,member,41.8550191206502,-87.6757758092604,1469
Michigan Ave & Pearson St,casual,41.897628541384158,-87.6235395554639,5457
Racine Ave & Congress Pkwy,casual,41.874635321875,-87.657026432291687,480
Racine Ave & Congress Pkwy,member,41.874622198871045,-87.657016167824565,2303
Western Ave & Fillmore St,casual,41.868592771780307,-87.686193503787877,528
Racine Ave & 18th St,casual,41.858185473961569,-87.656483805331675,1613
Racine Ave & 18th St,member,41.858188353462154,-87.656487538957023,2691
Wood St & Taylor St,casual,41.869161264967147,-87.6713936937799,386
Wood St & Taylor St (Temp),member,41.869283372189777,-87.673780524828146,1210
Dearborn Pkwy & Delaware Pl,casual,41.898951148272019,-87.629906956133951,6877
Morgan Ave & 14th Pl,member,41.862383990805093,-87.651083102157529,2302
Lake Shore Dr & Monroe St,member,41.880968293331058,-87.616746454656436,8737
Wabash Ave & Adams St,casual,41.879473589295038,-87.625707572873111,3892
Sheffield Ave & Fullerton Ave,casual,41.925612061417581,-87.653707860824,2567
Clinton St & 18th St,member,41.85796296915484,-87.640833645383509,1621
Burnham Harbor,member,41.856243133512258,-87.613326124402064,9129
Desplaines St & Jackson Blvd,member,41.878302405148531,-87.643902841305831,7944
State St & Harrison St,member,41.874073622833322,-87.627704136222249,3000
Green St & Madison St,member,41.881889760192671,-87.648766896281316,11626
Paulina St & 18th St,casual,41.857884902120318,-87.668714408407311,1352
Kingsbury St & Kinzie St,member,41.889203531557094,-87.6384966911508,16454
Aberdeen St & Monroe St,member,41.880415230904752,-87.655508294639489,5298
Lake Shore Dr & Belmont Ave,member,41.940771201170683,-87.639195156500321,9738
Damen Ave & Wellington Ave,casual,41.935885155824671,-87.678413435870809,1445
Indiana Ave & 26th St,casual,41.845681728555306,-87.622472455981949,886
Delano Ct & Roosevelt Rd,member,41.867494980938929,-87.632192232497943,2833
Racine Ave & Washington Blvd,member,41.883078680462653,-87.65693993812711,1196
Loomis St & Lexington St,member,41.872189734883449,-87.661498524573048,8451
Paulina St & Flournoy St,member,41.873006464771734,-87.669102209101553,4556
Franklin St & Adams St (Temp),member,41.879441475772474,-87.6354736461191,3226
Blue Island Ave & 18th St,casual,41.857569142520219,-87.661496646675658,1484
Blue Island Ave & 18th St,member,41.857559926293149,-87.661522024394074,3177
Lake Shore Dr & North Blvd,member,41.911728941409805,-87.626818385251681,12815
Throop (Loomis) St & Taylor St,casual,41.868961346531613,-87.659129633977912,1086
Western Ave & Congress Pkwy,casual,41.874732877145291,-87.686376801246709,941
Canal St & Harrison St,member,41.8742745402588,-87.639584992451461,1391
Financial Pl & Ida B Wells Dr,member,41.875022872016032,-87.633096046298178,3686
Wolcott Ave & Polk St,casual,41.871270971678889,-87.673688533414847,818
Dearborn St & Adams St,member,41.8793850464353,-87.629802893658123,4603
Ada St & Washington Blvd,member,41.88282722520416,-87.6611874663326,4490
Aberdeen St & Randolph St,member,41.8841160093589,-87.654264813172688,4274
Franklin St & Jackson Blvd,member,41.877732321430265,-87.6353036265121,7386
Green St & Randolph St,member,41.883691548103158,-87.648665525222853,7328
900 W Harrison St,member,41.874769607037514,-87.649804655920761,3164
Lincoln Ave & Belmont Ave,casual,41.939361405982915,-87.6683680905728,2613
Aberdeen St & Jackson Blvd,casual,41.87772922336719,-87.654790520443228,2166
State St & 19th St,casual,41.856611170940191,-87.6275481087533,1131
McClurg Ct & Erie St,casual,41.894478365846382,-87.617929842617443,4470
California Ave & Fletcher St,casual,41.938416967961118,-87.697991399131851,1221
Sheridan Rd & Columbia Ave,member,42.004550827932491,-87.661416433502112,1975
Clark St & 9th St (AMLI),member,41.870822194179091,-87.631213828493188,2617
Desplaines St & Kinzie St,member,41.888695151289618,-87.644430785338059,13208
Broadway & Granville Ave,member,41.994714125182192,-87.660258592663808,4469
University Ave & 57th St,member,41.79152010909408,-87.59987849927272,5729
Sheridan Rd & Irving Park Rd,member,41.954222849925429,-87.654403593353848,7152
Wabash Ave & 9th St,casual,41.870773520821537,-87.625732897047712,7068
Shore Dr & 55th St,casual,41.795268043903135,-87.580762228860408,5850
Clark St & Berwyn Ave,member,41.97798132561875,-87.668020685679267,5292
Sheridan Rd & Buena Ave,casual,41.958499297816473,-87.6549618483969,2412
Paulina St & Howard St,member,42.019171218998871,-87.6735776052332,1172
Western Ave & Division St,casual,41.902892264458842,-87.68726674538037,1389
Fairbanks Ct & Grand Ave,casual,41.891862145547186,-87.620591993028313,9042
California Ave & Fletcher St,member,41.938398676284585,-87.697955256790209,1446
HUBBARD ST BIKE CHECKING (LBS-WH-TEST),member,41.889927385877257,-87.680556609009869,140
Halsted St & Clybourn Ave,member,41.909663525997388,-87.648109336755851,9642
Wentworth Ave & Cermak Rd,casual,41.853091161130273,-87.631923272243867,2292
Desplaines St & Randolph St,member,41.884612053875145,-87.644557506683526,5040
Lincoln Ave & Belle Plaine Ave,member,41.956010429278216,-87.680192763248982,3376
Greenview Ave & Fullerton Ave,member,41.925339335622787,-87.66578579336057,5387
Broadway & Ridge Ave,casual,41.984007985259126,-87.660258797358964,2289
Oakley Ave & Touhy Ave,casual,42.012334831658286,-87.688231663735337,398
Budlong Woods Library,member,41.983679175049581,-87.696415651807186,380
Broadway & Thorndale Ave,casual,41.989704279762925,-87.660111634293571,2563
Paulina St & Howard St,casual,42.01916142040816,-87.673570961904758,490
Wolcott Ave & Fargo Ave,casual,42.016977739538234,-87.677728187590191,231
Clark St & Berwyn Ave,casual,41.977994391957722,-87.6680391518032,3059
Broadway & Granville Ave,casual,41.994719835987183,-87.660252704301115,3142
Valli Produce - Evanston Plaza,casual,42.039732833333332,-87.699414427304944,376
Western Ave & Lunt Ave,member,42.008527957044841,-87.690451427358767,1271
Glenwood Ave & Morse Ave,member,42.007915531417204,-87.6654865213871,2167
Clark St & Armitage Ave,member,41.918299758578939,-87.6362923724553,12657
Wacker Dr & Washington St,member,41.883163489351269,-87.637298748809016,4758
South Shore Dr & 67th St,casual,41.773704259389667,-87.567555733568085,1136
Drake Ave & Addison St,casual,41.947328342105266,-87.717590799122789,190
Logan Blvd & Elston Ave,member,41.929468935869686,-87.684166442468282,3233
Lakeview Ave & Fullerton Pkwy,member,41.925861053638549,-87.638981760915669,10375
Lake Shore Dr & Ohio St,casual,41.892577998968171,-87.614518360382263,6784
Clark St & Ida B Wells Dr,member,41.875947372083793,-87.630603589374843,3988
Desplaines St & Randolph St,casual,41.88460942922746,-87.644561533218535,2907
Field Museum,casual,41.865347304149452,-87.617891771866383,1936
Wells St & Concord Ln,casual,41.912116862711926,-87.634673164305127,9457
Franklin St & Lake St,member,41.885857011600038,-87.635513441169678,7227
Franklin St & Lake St,casual,41.885829518322439,-87.635460932315979,3211
Lincoln Ave & Roscoe St,member,41.943330842939154,-87.670955156978039,6038
Orleans St & Hubbard St,member,41.890010656108423,-87.636603221723078,4341
Dusable Harbor,member,41.886973928708137,-87.6128225786284,4180
Dusable Harbor,casual,41.886962337814147,-87.612808697056153,6658
Daley Center Plaza,member,41.884231029274559,-87.629647932636885,10003
Daley Center Plaza,casual,41.884206036683686,-87.629652800412089,3721
Ogden Ave & Congress Pkwy,casual,41.875002544183438,-87.6732470139821,298
State St & Pearson St,member,41.897442149351534,-87.628710587933725,4909
Clinton St & Madison St,casual,41.882233868675044,-87.641083924783089,3419
Wabash Ave & 16th St,casual,41.860398160299944,-87.625807880376328,2356
State St & 29th St,member,41.841706171806166,-87.6269212195301,227
Buckingham Fountain,member,41.876471906957981,-87.620508780903847,2164
Burnham Harbor,casual,41.856262431560076,-87.613337960749149,3346
Michigan Ave & 14th St,casual,41.864103910180859,-87.623726976266468,4073
Ogden Ave & Race Ave,casual,41.891785095844114,-87.658737046735666,2318
State St & Harrison St,casual,41.874060510372864,-87.627704538360888,3567
McClurg Ct & Erie St,member,41.894486469379807,-87.617935178382524,10271
Michigan Ave & Madison St,member,41.88212867010526,-87.625158183017547,4750
Michigan Ave & Madison St,casual,41.8821379645093,-87.625155601945465,3461
Clark St & Lincoln Ave,member,41.915696475938269,-87.634605323964891,11706
Bissell St & Armitage Ave,casual,41.91843704825498,-87.65221240334165,5616
Emerald Ave & 31st St,member,41.838198956935329,-87.645088408214434,2593
Peoria St & Jackson Blvd,casual,41.877649646099648,-87.649582845886,3088
Mies van der Rohe Way & Chestnut St,member,41.89857904370335,-87.621967056107223,8572
Michigan Ave & Lake St,member,41.886010396723712,-87.624164722951065,9757
Calumet Ave & 18th St,casual,41.857620981804395,-87.619415939348,2638
Green St & Madison St,casual,41.881902741858596,-87.64877059574664,5384
Adler Planetarium,member,41.866097562336073,-87.607279197878412,5719
Adler Planetarium,casual,41.866098987248023,-87.6072810064595,5986
LaSalle St & Adams St,member,41.879334528446279,-87.631950817029747,2790
Streeter Dr & Grand Ave,member,41.892291272816117,-87.612057564915034,8868
Dearborn St & Erie St,casual,41.893995382273012,-87.629329394852775,8095
Paulina Ave & North Ave,casual,41.910339814114678,-87.670083921613113,2645
Damen Ave & Division St,casual,41.903276594027261,-87.6784249420152,2104
Wabash Ave & Cermak Rd,member,41.852620261086749,-87.626487250121812,1368
Wabash Ave & Cermak Rd,casual,41.852621544811321,-87.626452136792437,1060
Carpenter St & Huron St,casual,41.894586815336844,-87.653432391383973,2093
Sangamon St & Washington Blvd,member,41.883186685071841,-87.651073529796818,3921
Sangamon St & Washington Blvd,casual,41.883158119477471,-87.651081666960252,2271
Wells St & Polk St,casual,41.872621792403905,-87.633516185529771,3278
Clark St & Lake St,member,41.8860076090648,-87.630896409280481,7352
Ogden Ave & Chicago Ave,casual,41.896362354551421,-87.65404590225593,2343
Franklin St & Monroe St,casual,41.880315443783068,-87.635200102813855,2772
Wabash Ave & 9th St,member,41.870775063931518,-87.625730356659972,7495
Michigan Ave & 8th St,casual,41.872762586832536,-87.623980900052544,8883
Wabash Ave & Grand Ave,member,41.891479956700842,-87.6267802757689,12583
St. Clair St & Erie St,member,41.894432059639875,-87.622729113676542,17411
St. Clair St & Erie St,casual,41.894422493625576,-87.622703223173431,6443
Rush St & Superior St,casual,41.895764708436367,-87.625962090380881,5312
Wells St & Huron St,casual,41.894735131149353,-87.634362874101029,7555
LaSalle St & Illinois St,member,41.890777488328659,-87.631699320159939,8211
McClurg Ct & Illinois St,member,41.890395314359338,-87.617543666463746,8213
Shore Dr & 55th St,member,41.795244636045481,-87.580756580961037,4953
Delano Ct & Roosevelt Rd,casual,41.86749526084683,-87.632177607510016,1913
May St & Taylor St,member,41.869481964345589,-87.655491566625116,4811
May St & Taylor St,casual,41.869481423309416,-87.6554839354679,1952
State St & 19th St,member,41.856623457308089,-87.627549403470042,1585
Michigan Ave & Jackson Blvd,member,41.877872493689225,-87.624087668115052,3222
Clinton St & Jackson Blvd,casual,41.878087113320461,-87.639846096915818,959
Millennium Park,casual,41.881040859704193,-87.624087119116041,19270
State St & Kinzie St,member,41.889192633996785,-87.627832914327783,8943
LaSalle Dr & Huron St,casual,41.8948793385765,-87.63230661018909,4037
Sedgwick St & Webster Ave,casual,41.922178594220476,-87.638912687380014,3299
Fort Dearborn Dr & 31st St,member,41.838552895844444,-87.608210863098421,3746
McCormick Place,member,41.851394925956782,-87.618824542235316,900
Wentworth Ave & 24th St (Temp),member,41.850091983927321,-87.632131059250042,864
Franklin St & Illinois St,casual,41.891032105573089,-87.635480627956056,3260
Sheffield Ave & Willow St,member,41.913694686354745,-87.652862306422065,7822
Michigan Ave & 18th St,casual,41.857820366850078,-87.624551433654275,3635
Honore St & Division St,member,41.903117914852579,-87.673913823200621,5099
Canal St & Taylor St,member,41.870250082100995,-87.639463297403879,3043
Michigan Ave & Washington St,casual,41.883988087101478,-87.624670160354611,10174
Wentworth Ave & Cermak Rd,member,41.853093109109885,-87.631920076026063,2320
LaSalle St & Jackson Blvd,casual,41.878217459493086,-87.631881618239447,1473
Green St & Randolph St,casual,41.883682014582476,-87.6486444109231,4846
Clinton St & Polk St,member,41.8715049133053,-87.640932685582911,646
Franklin St & Chicago Ave,member,41.896736598063313,-87.6356761332437,7819
Wells St & Walton St,member,41.899946004433055,-87.634422131022674,3807
Shields Ave & 31st St,member,41.838449404513895,-87.635371557183163,1536
Kimbark Ave & 53rd St,casual,41.799594848740448,-87.594739595928928,2964
MLK Jr Dr & 63rd St,member,41.780093976642164,-87.615919182725435,97
Wells St & Hubbard St,member,41.889926860232023,-87.634285970827534,10775
Wells St & 19th St,casual,41.856798569870485,-87.63387254481934,978
Halsted St & Clybourn Ave,casual,41.909648260679134,-87.648114069086972,3691
Eckhart Park,casual,41.896373640433879,-87.660967841058323,2589
Clark St & Elm St,casual,41.90296953893494,-87.631298415112383,10616
Wabash Ave & Wacker Pl,casual,41.886893185776188,-87.626037723115857,7771
Sedgwick St & Huron St,member,41.89467996401104,-87.638400258211178,7368
Clifton Ave & Armitage Ave,member,41.918208394833357,-87.6569208825966,5271
State St & 33rd St,casual,41.834743333169463,-87.625798358570933,1017
Commercial Ave & 83rd St,casual,41.744613845454545,-87.551206387878779,165
South Shore Dr & 67th St,member,41.773644376152831,-87.567518016139658,506
Ashland Ave & Wrightwood Ave,member,41.928815357825357,-87.66847578769908,3035
Benson Ave & Church St,member,42.048201060440363,-87.6834896547098,2286
Rockwell St & Eastwood Ave,casual,41.965894012671946,-87.693629247923369,585
Kedzie Ave & Lake St,member,41.884591401451175,-87.706201380651521,546
Sheffield Ave & Webster Ave,casual,41.9215581162103,-87.65380717422417,4565
Logan Blvd & Elston Ave,casual,41.929462982779512,-87.68414849498096,1926
Orleans St & Chestnut St (NEXT Apts),member,41.89819461167918,-87.6375075851419,4792
Western Ave & Fillmore St,member,41.868631499542623,-87.686084065587266,1822
Larrabee St & Armitage Ave,member,41.9180771651834,-87.643738515271053,4944
University Library (NU),member,42.052923524254744,-87.673428952574525,1230
Sheffield Ave & Waveland Ave,casual,41.949360039134589,-87.654508698615956,6286
Western Ave & Congress Pkwy,member,41.874713495697634,-87.686322403714271,1455
Lincoln Park Conservatory,casual,41.923938030195636,-87.63582887436516,5949
Halsted St & Willow St,casual,41.913856463343684,-87.648757463990165,2578
Paulina Ave & North Ave,member,41.910329959041185,-87.67007631521993,4297
Ridge Blvd & Howard St,casual,42.01927629012345,-87.6845119537037,216
Michigan Ave & Lake St,casual,41.886018229223957,-87.624152390864552,10545
Ogden Ave & Roosevelt Rd,member,41.866508664340039,-87.684671883191683,1200
California Ave & Byron St,casual,41.952140444892215,-87.6980310981088,910
Halsted St & 21st St,casual,41.85375534906597,-87.646600712806148,418
Carpenter St & Huron St,member,41.894573944254354,-87.6534199756202,4676
Kedzie Ave & Harrison St,member,41.873602549344859,-87.704882090399991,88
Wood St & Taylor St (Temp),casual,41.8692772301002,-87.673852933311153,147
Western Ave & 21st St,member,41.854108783735484,-87.685803712243086,1119
Halsted St & North Branch St,casual,41.899367296801678,-87.64847857930782,413
Halsted St & 18th St,casual,41.85750491775741,-87.646251168193686,764
Halsted St & 18th St,member,41.857503766876967,-87.646272301051511,1585
Western Ave & 28th St,member,41.841515902379271,-87.685123155216672,224
Calumet Ave & 18th St,member,41.857623727793182,-87.619416893321954,4687
Loomis St & Lexington St,casual,41.872198711591672,-87.661466982161073,2289
Sheffield Ave & Wrightwood Ave,casual,41.928708072082287,-87.653828250926551,4407
Western Ave & 24th St,member,41.848497834736854,-87.685073622456144,475
Kedzie Ave & Roosevelt Rd,casual,41.866498611651977,-87.706493613273878,208
Ashland Ave & 13th St,member,41.865237924093222,-87.666506075824728,2031
Washtenaw Ave & Ogden Ave,member,41.861934408721076,-87.693434534569136,603
Michigan Ave & Jackson Blvd,casual,41.877853725057463,-87.624082585938723,4350
Throop (Loomis) St & Taylor St,member,41.868970460029068,-87.659117930050868,2752
LaSalle St & Washington St,casual,41.882713725727065,-87.632556768903811,2235
Cityfront Plaza Dr & Pioneer Ct,casual,41.890548183966338,-87.622083677675548,4239
Kedzie Ave & Chicago Ave,casual,41.89544029437009,-87.705965343350783,409
Aberdeen St & Randolph St,casual,41.88411831490712,-87.654267898278221,2207
Morgan St & Lake St,casual,41.885501968507093,-87.652274812395845,4998
Damen Ave & Pierce Ave,casual,41.909398955766527,-87.67768500388722,6437
Western Ave & Walton St,casual,41.898417814386946,-87.686562976389922,1788
Western Ave & Monroe St,member,41.879784615890379,-87.6860972986816,1251
Archer (Damen) Ave & 37th St,member,41.826708316590562,-87.6831265327245,219
Ritchie Ct & Banks St,member,41.906854862157765,-87.626260668952639,6343
Ritchie Ct & Banks St,casual,41.90685798549827,-87.626258956494809,4034
Clark St & Columbia Ave,casual,42.004457438320593,-87.672395257331388,550
Montrose Harbor,member,41.963973295362727,-87.638195294073412,7756
Wells St & Evergreen Ave,member,41.906716396555694,-87.6348424547565,10123
Lake Shore Dr & Belmont Ave,casual,41.94078,-87.639199725911823,8673
Loomis St & Archer Ave,member,41.841626291658088,-87.657427353585476,812
Marshfield Ave & 44th St,member,41.814016089743589,-87.666604919871787,52
Kimbark Ave & 53rd St,member,41.799591081485787,-87.594735175580169,5142
MLK Jr Dr & 47th St,member,41.809854422181367,-87.616279175245083,272
Stewart Ave & 63rd St,member,41.7798392037037,-87.634762333333342,18
Ashland Ave & Blackhawk St,member,41.907074026410541,-87.667260200159362,5648
Morgan St & 31st St,casual,41.837803421581768,-87.651140255808755,746
Greenview Ave & Diversey Pkwy,member,41.932593303843817,-87.66591747143714,2554
Milwaukee Ave & Wabansia Ave,member,41.912613819120466,-87.681394824118939,6602
Ravenswood Ave & Berteau Ave,member,41.9579130886564,-87.673567915657131,1816
Glenwood Ave & Morse Ave,casual,42.007971696394428,-87.665496022340491,1524
Clinton St & Roosevelt Rd,casual,41.867120637355306,-87.641082738552214,2223
Indiana Ave & 26th St,member,41.84569501829565,-87.622501924689985,2742
Clark St & North Ave,casual,41.911978557871237,-87.631941072385544,5374
Dearborn St & Monroe St,casual,41.881285262448479,-87.629537970199081,3769
Racine Ave & 35th St,member,41.830715162845685,-87.655980678721775,450
St. Louis Ave & Balmoral Ave,casual,41.98039246409428,-87.716111087222615,548
Morgan Ave & 14th Pl,casual,41.862386109803921,-87.651072461764713,850
Wood St & Hubbard St,casual,41.889894534153,-87.671471315573783,854
Union Ave & Root St,casual,41.819107800200804,-87.643281025100393,166
Halsted St & 21st St,member,41.853765877985396,-87.646608643947573,668
Mies van der Rohe Way & Chestnut St,casual,41.898581059599891,-87.6219458011035,5301
Paulina St & 18th St,member,41.857916174485119,-87.668721815789482,2622
Halsted St & Archer Ave,member,41.8472109354231,-87.646800479273722,973
State St & 35th St,member,41.831035477664749,-87.627206509866625,1760
Ogden Ave & Chicago Ave,member,41.896367155456858,-87.654063620958681,5559
Aberdeen St & Monroe St,casual,41.880424547907374,-87.655497545889091,1569
Western Ave & 24th St,casual,41.8485086114754,-87.685068946994534,305
Ashland Ave & 13th St,casual,41.865276933613451,-87.666507810084028,595
Leavitt St & North Ave,member,41.910311333954418,-87.682319860971518,2947
Clinton St & Jackson Blvd,member,41.87810010470605,-87.639828374823,5134
Throop St & Taylor St,member,41.868937143208662,-87.6591247878937,1016
Emerald Ave & 28th St,member,41.843604734963655,-87.645371588235292,1513
Damen Ave & Coulter St,casual,41.849199947272723,-87.675635086666674,275
Honore St & Division St,casual,41.903124019926466,-87.673921032647584,3354
Canal St & Taylor St,casual,41.870251756200233,-87.639474647895355,1465
Central Park Ave & Bloomingdale Ave,casual,41.914170959003833,-87.716758067688374,1305
Ogden Ave & Roosevelt Rd,casual,41.86650413397242,-87.6846742223614,463
Laflin St & Cullerton St,member,41.854905222517573,-87.6635799041853,1458
Wilton Ave & Diversey Pkwy,casual,41.93241469881859,-87.652709342610208,4204
Racine Ave & 15th St,member,41.8612764354968,-87.656614025641019,832
Racine Ave & 15th St,casual,41.86127329199735,-87.656606793981467,504
Halsted St & Maxwell St,casual,41.864890336756652,-87.647075410602511,1704
Loomis St & Jackson Blvd,member,41.877932888109044,-87.6620028713254,3277
Morgan St & 18th St,member,41.858090498035359,-87.651081307629326,2036
Jefferson St & Monroe St,member,41.880429110708207,-87.642716648819686,4688
May St & Cullerton St,member,41.85514512539234,-87.654110386220964,1062
Kosciuszko Park,casual,41.930586514163217,-87.723739764732585,1176
Wood St & Milwaukee Ave,casual,41.907651411086874,-87.672549224500173,4585
Stockton Dr & Wrightwood Ave,casual,41.931303918582095,-87.638739088432828,6700
Southport Ave & Irving Park Rd,member,41.954165347323972,-87.664354293498178,3276
Michigan Ave & Oak St,casual,41.900974307683342,-87.62378482607356,13567
Clark St & Elmdale Ave,casual,41.990451806873139,-87.669782358062534,933
Orleans St & Elm St,casual,41.902893589437362,-87.6376949302017,1256
Orleans St & Elm St,member,41.902911746885067,-87.637707363922729,2381
Clark St & Chicago Ave,casual,41.896755434319005,-87.63088803189963,3720
Troy St & Elston Ave,member,41.9452148394913,-87.706634955465091,1332
State St & Pearson St,casual,41.8974517649597,-87.628706147558063,3515
Southport Ave & Belmont Ave,casual,41.93930186389737,-87.663785173121269,2785
Bissell St & Armitage Ave,member,41.918425079262384,-87.652210491741059,9969
Larrabee St & Division St,member,41.903491845184575,-87.643363111849723,6311
Halsted St & Wrightwood Ave,member,41.929134364287556,-87.649090484770269,7748
Kingsbury St & Kinzie St,casual,41.889208025590086,-87.638498396919218,4884
Clinton St & Washington Blvd,casual,41.883400003412596,-87.641164653786888,1514
Stave St & Armitage Ave,casual,41.91774882247816,-87.691414704262641,1259
Damen Ave & Thomas St (Augusta Blvd),member,41.901309540145384,-87.677412650657544,4081
Desplaines St & Kinzie St,casual,41.888703626478751,-87.64443349472414,6074
Larrabee St & Oak St,member,41.9002119395757,-87.642982029279977,4258
Fairbanks St & Superior St,member,41.895726612514494,-87.620130319116484,5463
Fairbanks St & Superior St,casual,41.895731579353118,-87.620117425758352,1989
Racine Ave & Belmont Ave,casual,41.939720844697973,-87.658868746577184,3725
Clark St & Schiller St,member,41.907986700039672,-87.6315029336672,10083
Cannon Dr & Fullerton Ave,casual,41.9267607904015,-87.634427029135381,4479
Orleans St & Chestnut St (NEXT Apts),casual,41.898190778670951,-87.6375247534164,2488
LaSalle Dr & Huron St,member,41.894891664491993,-87.632283711406885,5748
Clybourn Ave & Division St,casual,41.904593830041165,-87.6405421457819,1620
Cityfront Plaza Dr & Pioneer Ct,member,41.890567403063393,-87.622119932180752,5495
Halsted St & Roscoe St,member,41.943675668274963,-87.6489578782253,9534
Michigan Ave & Pearson St,member,41.897659280775656,-87.623550656648447,4392
Theater on the Lake,member,41.926276477026164,-87.630839766858145,14103
900 W Harrison St,casual,41.874755941632088,-87.64980602074688,1205
Broadway & Wilson Ave,member,41.96521957847289,-87.658138556175814,5195
Larrabee St & Webster Ave,casual,41.921815182270784,-87.64412907306351,7733
Halsted St & Dickens Ave,casual,41.9199389291844,-87.648828269233647,4467
Broadway & Belmont Ave,member,41.940103248014147,-87.645458825992918,8015
Milwaukee Ave & Wabansia Ave,casual,41.912614241379316,-87.681394252132,3596
Kedzie Ave & Palmer Ct,member,41.921501155498966,-87.707283679663021,2552
California Ave & Cortez St,member,41.90037850338728,-87.696696099297455,2657
Broadway & Cornelia Ave,casual,41.945524136314269,-87.6464341192105,6139
Damen Ave & Wellington Ave,member,41.935885985173208,-87.678410000876141,2473
California Ave & Altgeld St,casual,41.926685336720865,-87.697681965582646,1230
California Ave & Altgeld St,member,41.926683521475695,-87.69767328416934,2173
Sheridan Rd & Montrose Ave,casual,41.961656489263589,-87.654620534983422,4626
California Ave & Francis Pl (Temp),casual,41.918452697236575,-87.697377043193342,1285
California Ave & Francis Pl (Temp),member,41.91852926321139,-87.697400191312369,1984
Sacramento Blvd & Franklin Blvd,member,41.890482382330454,-87.702611780423709,370
Troy St & North Ave,member,41.909786495594162,-87.705291519048842,1754
Talman Ave & Addison St,casual,41.94662692141911,-87.694612857234631,743
Western Ave & Roscoe St,member,41.943022901004014,-87.687281270582346,1660
California Ave & Milwaukee Ave,member,41.922682098944968,-87.697138030902465,4676
Racine Ave & Wrightwood Ave,member,41.928885168101452,-87.65896655401275,3601
Sawyer Ave & Irving Park Rd,member,41.95355894138148,-87.7092276074939,653
Kedzie Ave & Palmer Ct,casual,41.92152711766645,-87.707306070204325,1517
Keystone Ave & Fullerton Ave,member,41.924588246147607,-87.727862517031625,411
Clifton Ave & Armitage Ave,casual,41.91820684632372,-87.656923937191479,2566
Theater on the Lake,casual,41.926283319691954,-87.630846434353359,16274
Lake Park Ave & 35th St,casual,41.831270429805038,-87.608778962633423,2647
Pine Grove Ave & Waveland Ave,casual,41.949551499585311,-87.64633643010994,6219
Wells St & Evergreen Ave,casual,41.90671615885968,-87.634854074477786,8027
Wallace St & 35th St,casual,41.830624705828782,-87.641290442167559,366
Franklin St & Jackson Blvd,casual,41.87772479643052,-87.635313084424638,3413
Canal St & Madison St,casual,41.882099359129271,-87.639740582278492,1738
Clark St & Ida B Wells Dr,casual,41.875946419648535,-87.630607530357125,1002
Stetson Ave & South Water St,casual,41.8868005869996,-87.622319329022986,3364
Field Blvd & South Water St,casual,41.886278910244272,-87.617465170934523,3492
Morgan St & 31st St,member,41.837796765350888,-87.65113543023574,1216
State St & Van Buren St,casual,41.877165408709871,-87.627842256038647,2346
California Ave & 26th St,member,41.844080927558181,-87.695299377218745,112
Paulina St & Montrose Ave,casual,41.961523017522893,-87.671401433890864,837
Paulina St & Montrose Ave,member,41.961504799405787,-87.671402914222739,1739
Avondale Ave & Irving Park Rd,member,41.95335046029723,-87.731916624203819,785
Clark St & Wellington Ave,casual,41.936502518360946,-87.647547115684759,5125
Southport Ave & Belmont Ave,member,41.9393183667619,-87.663806225995643,4412
Damen Ave & Leland Ave,member,41.967089940276232,-87.678998497900338,3572
Wilton Ave & Belmont Ave,casual,41.940177722012493,-87.653032814247752,7152
Clarendon Ave & Gordon Ter,member,41.957927529664026,-87.64951443045932,6524
Kedzie Ave & Leland Ave,member,41.966684000268536,-87.7080477688025,724
Kedzie Ave & Leland Ave,casual,41.966687034006696,-87.708061848828947,675
Rockwell St & Eastwood Ave,member,41.965857305610058,-87.6936172046967,1643
Ashland Ave & Belle Plaine Ave,casual,41.95607362557287,-87.668804782920859,1091
Ashland Ave & Belle Plaine Ave,member,41.9560726878307,-87.668802576402115,1575
Broadway & Argyle St,member,41.973796578881633,-87.659667912658122,4137
Campbell Ave & Montrose Ave,member,41.96151757903818,-87.691150555074827,1902
Montrose Harbor,casual,41.963988027616281,-87.638197196391914,5848
Lincoln Ave & Winona St,member,41.974910188235064,-87.692541763519586,1372
Lincoln Ave & Sunnyside Ave,casual,41.962968290178573,-87.6847427718254,1344
Lincoln Ave & Sunnyside Ave,member,41.9629947123639,-87.684776416614312,3184
Ravenswood Ave & Berteau Ave,casual,41.957925314759038,-87.673577350401615,664
Kedzie Ave & Milwaukee Ave,casual,41.929571674569964,-87.707860788044314,4302
Clark St & Grace St,casual,41.950781806043743,-87.659169620875034,4495
Clark St & Grace St,member,41.950792899864794,-87.659180234719187,5917
Broadway & Ridge Ave,member,41.98402841364593,-87.660271617023312,3617
Clarendon Ave & Leland Ave,member,41.967972580447032,-87.650000107139576,3609
Racine Ave & Belmont Ave,member,41.939694406130272,-87.65886076576659,5481
Damen Ave & Foster Ave,member,41.975587629567727,-87.679462566477142,2392
Monticello Ave & Irving Park Rd,casual,41.95400973481383,-87.719103778094208,454
Western Ave & Leland Ave,member,41.966497537266285,-87.688413395181172,3624
Damen Ave & Sunnyside Ave,member,41.963268778406032,-87.679271459253272,1857
Clarendon Ave & Junior Ter,member,41.961001829276128,-87.649593399211909,5710
Lakefront Trail & Wilson Ave,casual,41.965820737605753,-87.645377324017559,3113
Sheridan Rd & Montrose Ave,member,41.9616587196758,-87.654629884153167,7156
Ravenswood Ave & Lawrence Ave,member,41.969085864833033,-87.674211892799434,7217
Ravenswood Ave & Irving Park Rd,member,41.954682235787907,-87.67392299957497,3137
Clark St & Winnemac Ave,member,41.973317443747327,-87.668016121418091,5580
Broadway & Berwyn Ave,member,41.97836035102538,-87.659765608620077,4795
Sheridan Rd & Buena Ave,member,41.958481406779669,-87.654973698945383,4425
Pine Grove Ave & Waveland Ave,member,41.949499361205021,-87.646353888108763,10480
Wolcott (Ravenswood) Ave & Montrose Ave,member,41.961409022240431,-87.676180004918024,3050
Wolcott (Ravenswood) Ave & Montrose Ave,casual,41.96141171118439,-87.676180159521849,1213
Keystone Ave & Montrose Ave,casual,41.961011418173605,-87.728842846641939,604
Clark St & Leland Ave,member,41.967077345101593,-87.66739739512505,4971
Leavitt St & Lawrence Ave,member,41.968888676865674,-87.684000228109468,1340
Kedzie Ave & Bryn Mawr Ave,casual,41.982382303000669,-87.708913390632091,501
Clark St & Montrose Ave,casual,41.961600254373522,-87.666073050354612,1410
Sheridan Rd & Loyola Ave,casual,42.001035796465146,-87.661216734706684,2401
Racine Ave & Wrightwood Ave,casual,41.928875710850434,-87.658963514956014,1705
Francisco Ave & Foster Ave,casual,41.975624840309465,-87.701418262000473,936
Greenview Ave & Fullerton Ave,casual,41.925339241273555,-87.6657840882681,2989
Marshfield Ave & Cortland St,member,41.916012620003862,-87.668876312737353,5179
Kedzie Ave & Milwaukee Ave,member,41.929576823841849,-87.70786188402792,5303
Ashland Ave & Chicago Ave,casual,41.8959759297787,-87.667698989632342,1913
Lincoln Ave & Belle Plaine Ave,casual,41.956005463945147,-87.68020956406373,1340
Sedgwick St & North Ave,casual,41.911384365824468,-87.638681840824461,3760
Canal St & Jackson Blvd,casual,41.877234635893984,-87.63937040723269,742
Morgan St & Polk St,casual,41.871770422554356,-87.6510232706824,1104
Clinton St & Tilden St,casual,41.875892718707007,-87.640752197386533,727
Clark St & Wrightwood Ave,casual,41.929523515020662,-87.643116099386134,6136
Lake Park Ave & 53rd St,member,41.799537178727334,-87.586469151099877,2042
Campbell Ave & North Ave,member,41.910521402294748,-87.6895645654954,2789
LaSalle St & Adams St,casual,41.8793424455487,-87.631938537743466,946
Rhodes Ave & 32nd St,member,41.836319470725705,-87.613521246863471,1355
Michigan Ave & Ida B Wells Dr,casual,41.876237321934241,-87.624421753419725,2778
Michigan Ave & Ida B Wells Dr,member,41.876231408211304,-87.62442060259761,1912
Fort Dearborn Dr & 31st St,casual,41.838572517945067,-87.60821592397815,5619
Dearborn St & Adams St,casual,41.879330958611519,-87.629754871889588,1510
Sheffield Ave & Kingsbury St,member,41.91053394111232,-87.653111247687733,8253
Greenview Ave & Jarvis Ave,casual,42.015968939013646,-87.66858660810216,757
Washtenaw Ave & Lawrence Ave,casual,41.968961193186217,-87.69603641734416,861
Campbell Ave & North Ave,casual,41.910519733835343,-87.68950512168675,1660
Ashland Ave & Archer Ave,casual,41.839195173937107,-87.66561258205887,342
Ashland Ave & Wrightwood Ave,casual,41.928829196428573,-87.6684953985682,2072
Maplewood Ave & Peterson Ave,casual,41.990223578910765,-87.693374260067444,423
Broadway & Wilson Ave,casual,41.965220610783291,-87.658143267788958,2881
Damen Ave & Melrose Ave,casual,41.940598417815487,-87.678508590491333,943
Field Blvd & South Water St,member,41.886300049888014,-87.617479691957257,5580
Leavitt St & Chicago Ave,member,41.895504057973831,-87.681986390205992,2573
Noble St & Milwaukee Ave,member,41.900676672452967,-87.6625929627263,4695
Damen Ave & Coulter St,member,41.849203025502881,-87.675636965876436,464
California Ave & Montrose Ave,casual,41.961079016654608,-87.695395369780343,1381
Wood St & Chicago Ave,member,41.895634740722741,-87.672059516609963,2057
Spaulding Ave & Armitage Ave,member,41.917103760033974,-87.710213720184214,1467
Jefferson St & Monroe St,casual,41.880410122522029,-87.642732990730551,1816
Leavitt St & Belmont Ave,casual,41.939352109452734,-87.683253397180778,804
Marine Dr & Ainslie St,casual,41.971581101718293,-87.6501476377315,3744
Clark St & Randolph St,casual,41.884620862055762,-87.631870536061385,3420
Wabash Ave & Adams St,member,41.8794907518227,-87.625729975921459,4083
Stockton Dr & Wrightwood Ave,member,41.931309564073359,-87.638733734519676,9216
Woodlawn Ave & Lake Park Ave,member,41.814153362666609,-87.5970260406263,816
Clarendon Ave & Gordon Ter,casual,41.957917560873454,-87.649516267258747,3168
Albany Ave & Bloomingdale Ave,member,41.914013713846494,-87.705110584865125,1505
Cottage Grove Ave & 47th St,member,41.809865137797622,-87.606765326785734,560
Mies van der Rohe Way & Chicago Ave,casual,41.896921228925876,-87.621749107181387,4326
Orleans St & Merchandise Mart Plaza,casual,41.888205488167387,-87.636386435064935,2310
Larrabee St & Kingsbury St,casual,41.897743552782252,-87.642887881642508,1863
Wentworth Ave & 33rd St,casual,41.834527232835,-87.631823715638646,252
Shedd Aquarium,member,41.867185494708465,-87.615357436817035,3577
Burling St (Halsted) & Diversey Pkwy (Temp),member,41.933125202074756,-87.647773611796993,5832
Racine Ave & Washington Blvd,casual,41.883064864059591,-87.656942340083788,716
Franklin St & Adams St (Temp),casual,41.879402228580986,-87.635449648957831,1954
Clarendon Ave & Leland Ave,casual,41.967958853185181,-87.649987350888892,2250
Clark St & Bryn Mawr Ave,casual,41.983587327915679,-87.66915655476754,1692
Sheridan Rd & Irving Park Rd,casual,41.954225355385233,-87.654422535971207,3197
Clark St & Drummond Pl,casual,41.931230756526276,-87.644320850663618,6078
Clark St & Drummond Pl,member,41.9312432754154,-87.644325189238288,11194
Cannon Dr & Fullerton Ave,member,41.926772687234177,-87.63442851193291,2696
Damen Ave & Chicago Ave,casual,41.895761002800135,-87.677199439155288,2857
Canal St & Harrison St,casual,41.874283475499666,-87.63957862185687,517
Sedgwick St & Webster Ave,member,41.922192252111088,-87.638906590398776,6829
Clark St & North Ave,member,41.9119760490707,-87.631942298042944,5757
Pine Grove Ave & Irving Park Rd,casual,41.954367221505379,-87.648031251231316,4805
MLK Jr Dr & 47th St,casual,41.809857461868035,-87.616282034704383,778
MLK Jr Dr & 29th St,member,41.842043885100729,-87.616992565336375,4385
State St & Pershing Rd,casual,41.823015496011614,-87.62657329449047,175
MLK Jr Dr & Pershing Rd,casual,41.824595175990687,-87.6167818498446,858
Prairie Ave & 43rd St,casual,41.816678687664222,-87.619410850119507,668
State St & 54th St,casual,41.796621296296294,-87.625903336182333,117
Halsted St & 47th Pl,member,41.808143981806957,-87.6456191780037,271
Cornell Ave & Hyde Park Blvd,casual,41.802504008637236,-87.5869674425784,3126
Cottage Grove Ave & Oakwood Blvd,member,41.822964481790926,-87.6070742272922,778
Austin Blvd & Lake St,casual,41.887915400990096,-87.774441156215616,303
MLK Jr Dr & 63rd St,casual,41.780082585007605,-87.61593901238281,196
Lake Park Ave & 47th St,casual,41.8095413289792,-87.591935122157722,1378
Ellis Ave & 53rd St,casual,41.799331283943637,-87.600966307340371,1159
Cottage Grove Ave & 51st St,member,41.803021664791366,-87.60660868284107,711
Lincoln Ave & Roscoe St,casual,41.943336231918245,-87.670950929441815,2544
Damen Ave & Cortland St,member,41.915978639771723,-87.6773115542313,5286
Ellis Ave & 55th St,member,41.794297539485889,-87.601463705391055,3639
Racine Ave & Randolph St,member,41.8840946890651,-87.656867921953236,2396
Ashland Ave & Grace St,casual,41.950676189443449,-87.668710611804329,1683
Spaulding Ave & Armitage Ave,casual,41.917111322675936,-87.7102017020381,1149
Leavitt St & Addison St,member,41.946631748865627,-87.683326028970342,955
Ashland Ave & Augusta Blvd,casual,41.899632148809516,-87.667763122416915,1484
Winchester (Ravenswood) Ave & Balmoral Ave,member,41.979765523042929,-87.67750143671087,1056
Clark St & Newport St,casual,41.944525821112485,-87.654684664215708,4896
Spaulding Ave & Division St,member,41.902706544873872,-87.70920057161,1088
Larrabee St & North Ave,casual,41.91020996443342,-87.64350000124071,1612
Halsted St & Wrightwood Ave,casual,41.929138389211886,-87.6490870982316,4128
Eastlake Ter & Rogers Ave,casual,42.020885149263478,-87.665072964373749,948
Ellis Ave & 60th St,member,41.785112743720504,-87.601083226613568,3893
Broadway & Berwyn Ave,casual,41.978358345152721,-87.65975329043826,2510
Broadway & Waveland Ave,casual,41.94907706093008,-87.648630426849977,4910
Broadway & Argyle St,casual,41.973804829361825,-87.6596570895645,2434
Drake Ave & Montrose Ave,member,41.961177359242861,-87.716483557146617,501
Clark St & Winnemac Ave,casual,41.973314722367896,-87.6680228754592,2276
Clark St & Bryn Mawr Ave,member,41.983568590932308,-87.6691496638144,3915
Oakley Ave & Irving Park Rd,member,41.954325504971422,-87.686082341723946,1192
Dayton St & North Ave,casual,41.910575479909625,-87.6494183685979,2739
Western Ave & Granville Ave,member,41.994174971517673,-87.689387276712708,782
Winthrop Ave & Lawrence Ave,member,41.968811929827886,-87.657663152113372,2634
Pine Grove Ave & Irving Park Rd,member,41.954370730273851,-87.648044404771056,7790
Lakefront Trail & Bryn Mawr Ave,member,41.983998646863363,-87.652298704559158,9236
Halsted St & North Branch St,member,41.899369506698335,-87.648484137195069,972
Broadway & Thorndale Ave,member,41.989716475356083,-87.6601194309256,3064
Eckhart Park,member,41.896378292303979,-87.660985287614281,4974
Francisco Ave & Foster Ave,member,41.975610294850675,-87.701334229627321,1136
Jeffery Blvd & 67th St,casual,41.773515939191491,-87.577154350050648,655
Cottage Grove Ave & 63rd St,casual,41.780631051501047,-87.606072115242767,340
Stony Island Ave & 67th St,casual,41.773638963317325,-87.5853204155676,429
Perry Ave & 69th St,casual,41.769292739822461,-87.62819728709421,69
63rd St Beach,casual,41.781041975085728,-87.5761243296097,1478
Exchange Ave & 79th St,casual,41.751729002469133,-87.552810934567916,135
Halsted St & 35th St,casual,41.830719221887541,-87.647166380187414,498
Damen Ave & Pershing Rd,member,41.823192998456783,-87.67660185725309,216
Calumet Ave & 33rd St,casual,41.834898711586455,-87.617911858467025,935
Ashland Ave & Pershing Rd,member,41.823477733140656,-87.665586437379574,173
Calumet Ave & 35th St,casual,41.831405676558752,-87.618005286570749,556
Halsted St & 37th St,casual,41.827091102040804,-87.6456604360544,245
Wentworth Ave & 35th St,casual,41.830786696666657,-87.632508825,200
University Ave & 57th St,casual,41.791517739704972,-87.599880015877915,1627
Emerald Ave & 28th St,casual,41.843584756505585,-87.6453834628253,538
Ashland Ave & Archer Ave,member,41.839199112940534,-87.66560887597106,340
May St & Cullerton St,casual,41.855140254281956,-87.654135124725514,759
Wallace St & 35th St,member,41.830646571737788,-87.641309065708114,1078
Damen Ave & Leland Ave,casual,41.967091182815935,-87.679024972405145,1063
MLK Jr Dr & 29th St,casual,41.842067369516407,-87.616982630829014,1930
Field Museum,member,41.865307463678967,-87.6178870209432,1138
Orleans St & Hubbard St,casual,41.8900141369606,-87.636607784031682,1599
State St & 29th St,casual,41.841707780208331,-87.626936589236109,480
Museum of Science and Industry,casual,41.79179814126158,-87.583964181738935,1859
Emerald Ave & 31st St,casual,41.83820136131687,-87.645096436625508,810
Stave St & Armitage Ave,member,41.917718029465476,-87.691364573207181,2008
Rhodes Ave & 32nd St,casual,41.836290606600471,-87.613508080412771,1712
Calumet Ave & 21st St,member,41.854206433137016,-87.619164660797821,1234
Clinton St & Polk St,casual,41.871477645710137,-87.640939863967347,291
Woodlawn Ave & 55th St,casual,41.795269038798658,-87.59646383913379,1293
New St & Illinois St,casual,41.8908145983429,-87.618638803422925,620
Greenview Ave & Diversey Pkwy,casual,41.932593053729704,-87.666002792577359,1577
MLK Jr Dr & Pershing Rd,member,41.824642746726191,-87.616811011458353,1120
Calumet Ave & 33rd St,member,41.834896898155733,-87.617926049248652,2440
DuSable Museum,member,41.791576272464788,-87.607867526161556,508
Woodlawn Ave & Lake Park Ave,casual,41.814096563614584,-87.597009068165733,1022
Wentworth Ave & 33rd St,member,41.834522310575885,-87.631817663267356,581
Calumet Ave & 35th St,member,41.831416334111239,-87.618016704006223,857
Western Ave & 28th St,casual,41.841511094182756,-87.685120707997072,57
Indiana Ave & 31st St,casual,41.838832673649392,-87.621851789783165,907
Indiana Ave & 40th St,member,41.821694871093747,-87.621570212890632,256
Vincennes Ave & 75th St,casual,41.757973846491225,-87.631206118421034,38
Normal Ave & Archer Ave,casual,41.849590682926831,-87.64071564111498,287
Humboldt Blvd & Armitage Ave,member,41.917506483747765,-87.701774754718613,2599
Humboldt Blvd & Armitage Ave,casual,41.917511868495247,-87.701774770144766,1850
Leavitt St & Armitage Ave,member,41.9177947150838,-87.68242411725636,2685
Damen Ave & Cortland St,casual,41.915986514559279,-87.677313653439953,3377
Central Park Ave & Bloomingdale Ave,member,41.914174159454191,-87.716762445029232,855
California Ave & Milwaukee Ave,casual,41.922688787988982,-87.697147167107431,3025
Western Ave & Winnebago Ave,casual,41.915522952380954,-87.687015625707659,2002
California Ave & Montrose Ave,member,41.961065422688954,-87.695424667645284,2214
Damen Ave & Grand Ave,casual,41.891314083665755,-87.676830786559648,1097
Central Park Ave & North Ave,casual,41.909662938656538,-87.7166231746266,706
Chicago Ave & Sheridan Rd,casual,42.050484640449447,-87.67781301448845,1691
Sheridan Rd & Noyes St (NU),casual,42.0582246911315,-87.677425706269119,1090
Dodge Ave & Mulford St,casual,42.023492105263159,-87.699600961152882,399
Sheridan Rd & Lawrence Ave,member,41.969501169104319,-87.654686748582748,2940
Western Ave & Howard St,casual,42.01889418652226,-87.690038107701568,277
Ridge Blvd & Touhy Ave,casual,42.012122942613388,-87.682911522453608,265
University Library (NU),casual,42.05293190589569,-87.673431985260763,882
Evanston Civic Center,casual,42.057039092461729,-87.6865621360424,566
Eastlake Ter & Rogers Ave,member,42.020884940580586,-87.66507663487188,1872
Noble St & Milwaukee Ave,casual,41.900675165856285,-87.662579586169656,2468
Clark St & Touhy Ave,member,42.012567112439939,-87.674350576509312,433
Chicago Ave & Dempster St,casual,42.0416928144294,-87.68068452237253,961
Chicago Ave & Washington St,member,42.032572257999668,-87.6791225580479,2073
Museum of Science and Industry,member,41.791823170191456,-87.583966509248086,1435
Ashland Ave & Lake St,member,41.8859216258541,-87.667165925207755,1805
Seeley Ave & Roscoe St,member,41.943415088108324,-87.679613841117188,2548
Monticello Ave & Irving Park Rd,member,41.954003744206375,-87.7191142746387,730
Albany Ave & Montrose Ave,member,41.96099387522046,-87.70581077351558,1134
Clark St & Jarvis Ave,member,42.015890575480547,-87.674958158462246,711
Chicago Ave & Dempster St,member,42.041713610488394,-87.680692114224726,1249
Sheffield Ave & Wrightwood Ave,member,41.92870333719376,-87.653818870824068,6735
California Ave & Cortez St,casual,41.900368903831705,-87.696701831204635,1331
Albany Ave & Bloomingdale Ave,casual,41.914010810992195,-87.705126090233549,1296
Budlong Woods Library,casual,41.983670509890089,-87.696414515873087,529
Glenwood Ave & Touhy Ave,casual,42.012590197121817,-87.66601794009371,498
Southport Ave & Clybourn Ave,casual,41.920789276217775,-87.66371151270296,1745
Clark St & Elmdale Ave,member,41.990516061483206,-87.6698001922929,1986
Clark St & Leland Ave,casual,41.967091195753625,-87.667415873852846,2143
Western Ave & Division St,member,41.902897897226445,-87.687296774506052,2632
Smith Park,member,41.892037116855526,-87.689289798866852,706
South Shore Dr & 74th St,member,41.762333094023518,-87.559363754207652,305
Albany Ave & Montrose Ave,casual,41.961029626278112,-87.705856249488761,652
Morgan St & 18th St,casual,41.8580884064554,-87.65108505387326,1420
Sheffield Ave & Kingsbury St,casual,41.910533690778486,-87.653116235549618,2993
Drake Ave & Fullerton Ave,member,41.9243953129088,-87.715424079050493,1568
Smith Park (*),member,41.89201216589862,-87.689399239631342,217
Austin Blvd & Lake St,member,41.887910498671978,-87.774357827357235,251
Richmond St & Diversey Ave,member,41.931865783486892,-87.701159510699028,1001
Damen Ave & Charleston St,member,41.920088193175523,-87.677872135520474,2408
Valli Produce - Evanston Plaza,member,42.039718229047622,-87.699418672380958,700
Marshfield Ave & Cortland St,casual,41.916017185334773,-87.668877402620723,1857
Sheridan Rd & Lawrence Ave,casual,41.96949343198046,-87.654685038989115,1774
Sedgwick St & North Ave,member,41.91138669745947,-87.638682597148076,6744
California Ave & North Ave,member,41.910430332955585,-87.697169514430328,2206
Leavitt St & North Ave,casual,41.910326268038368,-87.682336426672563,1627
Central Park Ave & North Ave,member,41.909672505689073,-87.7166206750161,480
Southport Ave & Irving Park Rd,casual,41.95417284108526,-87.664354087060218,1677
Larrabee St & North Ave,member,41.910190765307249,-87.64350309460653,3016
Archer (Damen) Ave & 37th St,casual,41.826710086230413,-87.683137751192916,489
Greenwood Ave & 97th St,casual,41.718724786529251,-87.59700063506213,73
South Shore Dr & 71st St,member,41.766547525457725,-87.565765840925977,1014
Union Ave & Root St,member,41.819133388288286,-87.643282077027024,370
Greenview Ave & Jarvis Ave,member,42.015969836544251,-87.668583157936951,1661
California Ave & 21st St,member,41.853802330644363,-87.695734041978,600
Millard Ave & 26th St,member,41.8445727966337,-87.715929078207679,117
Millard Ave & 26th St,casual,41.844576392412748,-87.715939632243987,292
Damen Ave & Clybourn Ave,casual,41.931892799690651,-87.677843429105451,1293
Larrabee St & Division St,casual,41.903493072684128,-87.643348092673278,3131
Ellis Ave & 60th St,casual,41.785117204029874,-87.601067068516954,1926
Ellis Ave & 55th St,casual,41.794291964258768,-87.601447267333072,1270
DuSable Museum,casual,41.791572130946363,-87.607864621363717,259
Lake Park Ave & 56th St,member,41.793243998759905,-87.587787683978163,3360
Lake Park Ave & 56th St,casual,41.793241070803717,-87.587781661654844,1829
Dorchester Ave & 49th St,member,41.805859580112042,-87.592474190756292,595
Eberhart Ave & 61st St,casual,41.784139571082953,-87.613284963941,357
Ellis Ave & 53rd St,member,41.799333192170728,-87.600974139077081,2830
Harper Ave & 59th St,member,41.78796390583382,-87.588337971285057,1639
Cornell Ave & Hyde Park Blvd,member,41.802438534436732,-87.586932327282426,3746
63rd St Beach,member,41.781152015101483,-87.576168611698833,939
Wentworth Ave & 63rd St,casual,41.780082106991244,-87.629738622327622,105
Woodlawn Ave & 55th St,member,41.7953007210467,-87.596508464381415,2363
Ellis Ave & 58th St,casual,41.788748476162333,-87.601323443262416,846
Wood St & 35th St,member,41.830107747324213,-87.670300060433433,354
Greenwood Ave & 47th St,casual,41.809832685170065,-87.599372258911572,1225
Greenwood Ave & 47th St,member,41.809831744708994,-87.599376797241135,882
Lincoln Ave & Diversey Pkwy,casual,41.932219065311749,-87.658610100190529,3149
Wacker Dr & Washington St,casual,41.88315832123488,-87.637317861597836,1598
Prairie Ave & Garfield Blvd,member,41.794878014652014,-87.618704031135536,273
Washtenaw Ave & Lawrence Ave,member,41.9689540924408,-87.6960507675774,1830
Larrabee St & Armitage Ave,casual,41.918092771813363,-87.643748421282254,2636
Marine Dr & Ainslie St,member,41.971572313562227,-87.650157693907616,4864
Elston Ave & Wabansia Ave,casual,41.912871682257361,-87.664181209046987,759
Talman Ave & Addison St,member,41.946621822524051,-87.694622986568035,1386
Lincoln Ave & Addison St,member,41.946183378265104,-87.67330562085769,1710
California Ave & Division St,casual,41.903023619649588,-87.697479771457068,1503
California Ave & Lake St,member,41.884466363881415,-87.696286263331459,428
Clarendon Ave & Junior Ter,casual,41.960993357591853,-87.649587206684373,3765
Stony Island Ave & 90th St,casual,41.731390691065435,-87.585822199961129,25
Shields Ave & 28th Pl,casual,41.842731518939395,-87.635498017217643,484
Eberhart Ave & 61st St,member,41.784137413253987,-87.6133081929521,128
Indiana Ave & 40th St,casual,41.821683752508356,-87.621588341137127,299
Lakefront Trail & Bryn Mawr Ave,casual,41.983948161063822,-87.6522831454473,6450
Larrabee St & Menomonee St,casual,41.914689269041418,-87.643319431798446,1151
Eberhart Ave & 131st St,casual,41.657990248888169,-87.6107727783563,14
Central Park Ave & Ogden Ave,casual,41.854062897780338,-87.715159442048773,277
Walsh Park,casual,41.914607031367794,-87.667969622509432,1238
Dorchester Ave & 63rd St,member,41.780443736006951,-87.591329538957709,283
Leavitt St & Division St,member,41.902996651566468,-87.683799348856923,1181
State St & 79th St,casual,41.750794989071039,-87.624424758652083,183
Central Park Ave & Elbridge Ave,casual,41.935351522746394,-87.716839025455116,713
Sacramento Blvd & Franklin Blvd,casual,41.890486353945391,-87.702613541438467,115
Fairfield Ave & Roosevelt Rd,member,41.866629267195769,-87.69448610383597,252
Spaulding Ave & Division St,casual,41.902712144695279,-87.709211292577578,711
Michigan Ave & 114th St,casual,41.68702376408919,-87.621116828788914,15
Clark St & Jarvis Ave,casual,42.015971669988936,-87.675003996124033,301
Sheridan Rd & Greenleaf Ave,member,42.010588089911018,-87.662410574859862,1312
Austin Blvd & Madison St,member,41.880282642857139,-87.774470584126959,105
Kedzie Ave & Foster Ave,member,41.975671671091447,-87.70927288908554,565
Keystone Ave & Montrose Ave,member,41.961100660185728,-87.728971930178389,290
Central Park Ave & Elbridge Ave,member,41.935309660039678,-87.7168810229511,893
Claremont Ave & Hirsch St,member,41.907809248151082,-87.685875695324881,1262
Winchester Ave & Elston Ave,member,41.924071712749743,-87.676455668816772,1768
Richmond St & Diversey Ave,casual,41.931890066716868,-87.7011724925174,912
Milwaukee Ave & Rockwell St,member,41.920201254883182,-87.692811761873941,2346
Keystone Ave & Fullerton Ave,casual,41.924569240595616,-87.727817172152584,638
Troy St & North Ave,casual,41.909783975416715,-87.705290548876221,1501
South Chicago Ave & 83rd St,casual,41.743915625,-87.575218403846165,52
Cottage Grove Ave & Oakwood Blvd,casual,41.822968502567392,-87.607071084082165,1558
Albany Ave & 26th St,casual,41.844480741592434,-87.7020131473628,208
Cottage Grove Ave & 43rd St,member,41.8164985577859,-87.606586086982986,548
Cottage Grove Ave & 47th St,casual,41.80987510848253,-87.606779258525165,782
California Ave & 23rd Pl,member,41.849103783267715,-87.695124966492585,658
Knox Ave & Montrose Ave,casual,41.960630766260159,-87.745371316395648,246
Milwaukee Ave & Cuyler Ave,member,41.9544815425056,-87.749592897837431,447
Avondale Ave & Irving Park Rd,casual,41.953403658576057,-87.731989004854356,412
Kildare Ave & Montrose Ave,casual,41.961084397584543,-87.735692481642516,345
Kildare Ave & Montrose Ave,member,41.96107893726937,-87.735688062115614,271
MLK Jr Dr & 56th St,member,41.793544126711623,-87.61573563687341,203
South Shore Dr & 74th St,casual,41.762272549437306,-87.559329693603061,482
WATSON TESTING - DIVVY,casual,41.894742214285714,-87.730890619047614,14
Southport Ave & Clark St,member,41.9570876508823,-87.664200206977512,2059
Kedzie Ave & Bryn Mawr Ave,member,41.982383613053543,-87.708910410804734,592
Milwaukee Ave & Grand Ave,casual,41.891568874164896,-87.648368328696051,4241
Ada St & Washington Blvd,casual,41.88282750270416,-87.661175867946653,1849
Stony Island Ave & 64th St,member,41.778956448717949,-87.586379565527082,117
W Armitage Ave & N Sheffield Ave,member,41.92,-87.65,27
Glenwood Ave & Touhy Ave,member,42.012703686176842,-87.666071644250749,803
Dodge Ave & Mulford St,member,42.023498742052674,-87.699601137602173,367
Damen Ave & Foster Ave,casual,41.975592781766174,-87.679461321844457,1283
Ridge Blvd & Touhy Ave,member,42.012121524881309,-87.682901645471034,244
Damen Ave & Clybourn Ave,member,41.931928824227462,-87.677856486664311,2837
Western Ave & Lunt Ave,casual,42.008596675681353,-87.690487993199085,436
Clark St & Schreiber Ave,casual,41.999215920561966,-87.67134355774904,768
Kimball Ave & Belmont Ave,member,41.939401184782604,-87.711556983781932,966
Racine Ave & Fullerton Ave,casual,41.92557226187779,-87.658418530298121,2471
Wells St & Walton St,casual,41.899943878368695,-87.634426135723245,2074
Ashland Ave & Grand Ave,member,41.891079849833716,-87.666606865950385,2606
Canal St & Monroe St,casual,41.881684764385426,-87.639406850187257,979
Sedgwick St & Huron St,casual,41.894671732989551,-87.63838989729264,2327
Damen Ave & Charleston St,casual,41.920076836889656,-87.677868342560558,1734
Dorchester Ave & 63rd St,casual,41.780406162614661,-87.5914100800075,614
Wood St & Chicago Ave (*),member,41.895604915173237,-87.672095518518489,837
Kedzie Ave & Roosevelt Rd,member,41.866500930282612,-87.70649212266305,92
Knox Ave & Montrose Ave,member,41.960630725124382,-87.745377370024883,268
Milwaukee Ave & Cuyler Ave,casual,41.954477725871861,-87.749591560827255,411
Drake Ave & Montrose Ave,casual,41.961170505639259,-87.716444846816415,435
Troy St & Elston Ave,casual,41.945230030034608,-87.706645448146986,665
Smith Park (*),casual,41.8920282857143,-87.68939823214285,112
Elizabeth (May) St & Fulton St,casual,41.886621984330574,-87.65806307548938,1129
Ashland Ave & Lake St,casual,41.885919109465739,-87.6671711351626,1148
Calumet Ave & 51st St,casual,41.802289299554914,-87.618064806226656,550
State St & 35th St,casual,41.830979538886119,-87.627161799853312,644
Damen Ave & Melrose Ave,member,41.940591567506672,-87.6785030573653,1627
Wood St & Chicago Ave,casual,41.895637104259265,-87.672074118333327,900
State St & 95th St,casual,41.721707471333325,-87.622851021333332,50
MLK Jr Dr & 83rd St,casual,41.743110225694437,-87.614803090277775,48
Campbell Ave & Fullerton Ave,member,41.924630477307723,-87.689285585899867,1922
Lincoln Ave & Addison St,casual,41.946167078867539,-87.673287097573308,989
Leavitt St & Belmont Ave (*),casual,41.93938584615384,-87.683294461538466,104
Lincoln Ave & Waveland Ave,casual,41.948796737662619,-87.675274415657256,1486
Damen Ave & Sunnyside Ave,casual,41.963260654616015,-87.679270606209144,816
Leavitt St & Belmont Ave,member,41.939351702599389,-87.68324008119265,1090
Leavitt St & Belmont Ave (*),member,41.939392447761193,-87.683297044776126,402
Broadway & Belmont Ave,casual,41.940112988770331,-87.645459787558451,5061
Harper Ave & 59th St,casual,41.787934856204984,-87.588319250382042,571
Lakefront Trail & Wilson Ave,member,41.965832545052386,-87.645375668180051,4295
Pulaski Rd & Congress Pkwy,casual,41.87432674122806,-87.72575934649123,114
Sawyer Ave & Irving Park Rd,casual,41.953586378088758,-87.7093053820694,598
Western Ave & Roscoe St,casual,41.943037844380946,-87.687283680571426,875
California Ave & North Ave,casual,41.910440201959545,-87.69716936757267,1582
Drake Ave & Fullerton Ave,casual,41.924395235917437,-87.715432179894734,969
Leavitt St & Chicago Ave,casual,41.8954977747118,-87.682005704439547,1359
Kilbourn Ave & Irving Park Rd,member,41.9536462752443,-87.740377412052112,307
Vernon Ave & 79th St,casual,41.750947068627454,-87.613726894117633,85
State St & 79th St,member,41.7508035719697,-87.624415109848485,44
Halsted St & 73rd St,casual,41.761612837383829,-87.644151122734485,28
Ashland Ave & 69th St,casual,41.768724983870975,-87.66407125268816,62
Vernon Ave & 75th St,member,41.758378211934158,-87.6141180473251,81
Morgan St & Pershing Rd,casual,41.823617134751778,-87.650923198581538,47
Shields Ave & 28th Pl,member,41.842717079695085,-87.635482571379086,481
Burling St & Diversey Pkwy,member,41.933118563791325,-87.647756590650829,1936
Bradley Park,casual,41.717886791969008,-87.564614192511,32
Big Marsh Park,casual,41.686030555559419,-87.573123607838085,70
Big Marsh Park,member,41.686131545777542,-87.57310959533811,34
Elizabeth St & 47th St,casual,41.808396315920405,-87.656525502487568,67
Western Ave & Leland Ave,casual,41.966491323466926,-87.688375954633088,1500
Racine Ave & 65th St,casual,41.775397701754386,-87.654308342105253,57
Princeton Ave & Garfield Blvd,member,41.794984625313283,-87.633097260651638,133
Laflin St & Cullerton St,casual,41.854933889879057,-87.663550746534668,809
Damen Ave & Cullerton St,casual,41.855044948258417,-87.6757336596492,1093
California Ave & 23rd Pl,casual,41.849111384251941,-87.695132258838512,277
Racine Ave & 35th St,casual,41.830694694875184,-87.655952312134133,335
Cottage Grove Ave & 51st St,casual,41.803030199887388,-87.606612163475987,888
Calumet Ave & 51st St,member,41.802293354100364,-87.618073261075153,275
Lake Park Ave & 47th St,member,41.80949773627907,-87.591863646511641,1075
Ashland Ave & Blackhawk St,casual,41.907077567383652,-87.667232833211813,2743
Leavitt St & Division St,casual,41.902995037414961,-87.683801752834455,441
Wood St & Augusta Blvd,casual,41.8991919941127,-87.672200364451939,1189
Franklin St & Chicago Ave,casual,41.896748394796859,-87.635679822163965,2516
Kingsbury St & Erie St,casual,41.893796823196695,-87.641685574668259,4001
Claremont Ave & Hirsch St,casual,41.907781938448572,-87.685861465711085,593
Paulina St & Flournoy St,casual,41.87301849615654,-87.669064383822487,954
Malcolm X College,casual,41.877613918604652,-87.6738871138566,344
Ellis Ave & 83rd St,casual,41.744132281073455,-87.599051473163854,118
Halsted St & Roosevelt Rd,casual,41.867321760312947,-87.648647422712173,703
Racine Ave & 13th St,member,41.865070881405565,-87.656972741093213,683
Western Ave & 21st St,casual,41.854110665137611,-87.685833232033644,436
Kedzie Ave & 24th St,casual,41.84819580165545,-87.705407156420591,136
Washtenaw Ave & Ogden Ave,casual,41.861933514588273,-87.693432731868981,254
Fairfield Ave & Roosevelt Rd,casual,41.866621224926256,-87.69452476032447,226
Central Park Blvd & 5th Ave,member,41.875702870370368,-87.7154838611111,54
Kosciuszko Park,member,41.9305953235194,-87.723700137219851,1172
California Ave & Division St,member,41.903020672883692,-87.69748106581261,2654
Christiana Ave & Lawrence Ave,casual,41.96832696429508,-87.711776427983025,628
Manor Ave & Leland Ave,member,41.965875588153111,-87.700811835289173,1193
Ashland Ave & 63rd St,casual,41.77937704888889,-87.664838606666692,75
Sedgwick St & Schiller St,member,41.907611813347231,-87.63855293925964,1918
Manor Ave & Leland Ave,casual,41.965872900072149,-87.70081480844155,462
Drake Ave & Addison St,member,41.947317888751037,-87.71759523862697,403
Winthrop Ave & Lawrence Ave,casual,41.968818060018151,-87.657652139664179,1469
Christiana Ave & Lawrence Ave,member,41.968307157734749,-87.711766683618961,706
Ashland Ave & Wellington Ave,casual,41.936087077831459,-87.66981692512077,1242
Racine Ave & 13th St,casual,41.865040857495075,-87.657001011341222,338
Kedzie Ave & 21st St,member,41.853524405453463,-87.705078629372267,154
Winchester Ave & Elston Ave,casual,41.924093038784569,-87.67646611502353,971
Kedzie Ave & Lake St,casual,41.884512423654975,-87.70625634287083,273
Cottage Grove Ave & 67th St,casual,41.77372016258537,-87.60563064207318,164
Seeley Ave & Garfield Blvd,casual,41.794090627906975,-87.675484139534873,86
Leavitt St & Archer Ave,member,41.828790932170726,-87.680605639725229,296
Kedzie Ave & Chicago Ave,member,41.895481652039763,-87.706125540560791,794
Ashland Ave & Garfield Blvd,casual,41.792846729166662,-87.664077302083328,96
Cicero Ave & Quincy St,casual,41.877622829113918,-87.745397784810152,158
Stony Island Ave & 71st St,casual,41.76649492700686,-87.586467032573537,340
Stony Island Ave & 64th St,casual,41.778882742009131,-87.58664225,292
Central Ave & Lake St,casual,41.887668991954015,-87.765471562068953,145
Conservatory Dr & Lake St,casual,41.88549723975045,-87.7168653181818,374
Laramie Ave & Madison St,casual,41.880209717857127,-87.755338364285734,140
Kedzie Ave & 21st St,casual,41.853528300308618,-87.705077788512469,163
Damen Ave & Madison St,casual,41.881378980354064,-87.674920273531967,772
Damen Ave & Madison St,member,41.881388172460404,-87.674911576284273,863
Pulaski Rd & Eddy St (Temp),member,41.946278291666665,-87.731023779209607,388
Leavitt St & Lawrence Ave,casual,41.968887270270272,-87.683960729189181,925
Elizabeth (May) St & Fulton St,member,41.88660808621011,-87.658057636323392,2702
Racine Ave & Randolph St,casual,41.884076903386138,-87.656866964585276,1073
Burling St & Diversey Pkwy,casual,41.933122364517494,-87.647759570796467,791
Western Ave & Granville Ave,casual,41.994170297312749,-87.689428647341046,605
Sedgwick St & Schiller St,casual,41.907619307005504,-87.6385529573031,1456
Wood St & 35th St,casual,41.830108996836522,-87.670303715160287,406
Prairie Ave & 43rd St,member,41.816670994070122,-87.619407133651222,371
Shields Ave & 43rd St,casual,41.816206916203072,-87.634816982542318,26
Central Ave & Chicago Ave,casual,41.8949578163482,-87.76490842569001,157
McCormick Place,casual,41.851393499698247,-87.61883410868343,720
Hoyne Ave & Balmoral Ave,member,41.9798683963964,-87.681922327262043,851
Halsted St & 35th St,member,41.830672266790287,-87.6471699686856,809
Damen Ave & Pershing Rd,casual,41.823194141089104,-87.6765976439769,404
South Shore Dr & 71st St,casual,41.76652416857015,-87.565767571503955,1138
Jeffery Blvd & 67th St,member,41.77351766664971,-87.577193353413762,172
Jeffery Blvd & 71st St,member,41.766621026154205,-87.576442941011976,206
Rainbow Beach,casual,41.7578735399164,-87.549384762975791,289
Rainbow Beach,member,41.757949696836469,-87.549522021367522,117
Commercial Ave & 83rd St,member,41.74576431944444,-87.551891335317464,84
Lincolnwood Dr & Central St,casual,42.064850163622523,-87.715302877473363,219
Wolcott Ave & Fargo Ave,member,42.016992061904759,-87.677709675238091,175
Ridge Blvd & Howard St,member,42.0192741716954,-87.68451166307473,232
Central Ave & Madison St,member,41.8801246107595,-87.763142618143462,158
Calumet Ave & 21st St,casual,41.854189699467106,-87.61916417251804,1192
Cottage Grove Ave & 43rd St,casual,41.816591498073223,-87.606586248314059,692
Damen Ave & Walnut (Lake) St (*),member,41.885989786279687,-87.677001875989475,379
New St & Illinois St,member,41.890819439033706,-87.618709752756089,1120
Shields Ave & 31st St,casual,41.838466321394456,-87.635390474689615,349
Warren Park East,casual,42.004552636850981,-87.680673773913881,572
Jeffery Blvd & 76th St,casual,41.75755141876509,-87.576006510388524,195
Winchester (Ravenswood) Ave & Balmoral Ave,casual,41.979767477027025,-87.677531748198177,370
Central Park Blvd & 5th Ave,casual,41.875685837937382,-87.715469744014726,181
Wood St & Chicago Ave (*),casual,41.895613783783787,-87.672087432432434,148
Clark St & Lunt Ave,casual,42.009078273400668,-87.674226506060592,495
Dorchester Ave & 49th St,casual,41.805802386093639,-87.592576008036346,477
Lincoln Ave & Winona St,casual,41.974897825649514,-87.69246953740064,734
Leavitt St & Archer Ave,casual,41.828789966543326,-87.68060307609305,389
Elmwood Ave & Austin St,member,42.025847594658551,-87.6840981974307,493
Greenwood Ave & 91st St,casual,41.728603936185145,-87.597281305538075,26
Leavitt St & Addison St,casual,41.946644126096494,-87.6833611430921,608
Prospect Sq & 91st St,casual,41.728136836585371,-87.667563599186991,123
Bernard St & Elston Ave,member,41.94984669727139,-87.713823536135692,452
Wentworth Ave & Cermak Rd (Temp),casual,41.853000045662107,-87.630599799086752,219
Leavitt St & Armitage Ave,casual,41.917803438481073,-87.682427793513369,1444
St. Louis Ave & Fullerton Ave,member,41.92482227866428,-87.7144867942104,225
Avers Ave & Belmont Ave,member,41.939403107197549,-87.723574455844812,653
Oakley Ave & Irving Park Rd,casual,41.954328039210047,-87.686076825917965,733
Cherry Ave & Blackhawk St,member,41.907206333017086,-87.65560499051233,527
Southport Ave & Clark St,casual,41.957082725570778,-87.664198395890409,730
Halsted St & 37th St,member,41.82709543760064,-87.645726921095,414
Racine Ave & Washington Blvd (*),member,41.883098024390236,-87.656996487804875,615
Baltimore Ave & 87th St,casual,41.737340612590586,-87.548511905153333,46
Kostner Ave & Adams St,casual,41.877914074561396,-87.735764629385969,76
Kostner Ave & Adams St,member,41.877916953623178,-87.735814244927525,115
Kostner Ave & Lake St,casual,41.885927833333326,-87.735401291666662,36
Central Ave & Harrison St,member,41.873062350000012,-87.762534991666655,40
Pulaski Rd & Lake St,casual,41.885402135135138,-87.72633955855855,111
Evans Ave & 75th St,member,41.758497434959345,-87.606405052845517,41
MLK Jr Dr & 83rd St,member,41.743109263681596,-87.614802562189055,67
Wells St & 19th St,member,41.856798045439312,-87.633864510228022,994
Western Ave & Fillmore St (*),casual,41.868594861111113,-87.686204722222229,72
Western Ave & Fillmore St (*),member,41.868595318734791,-87.686204301703157,411
Cherry Ave & Blackhawk St,casual,41.9072124530686,-87.655616623345381,277
Malcolm X College,member,41.877609180585296,-87.673834362241251,467
Houston Ave & 92nd St,member,41.7282027252557,-87.549718505442655,14
Bernard St & Elston Ave,casual,41.949923102513225,-87.71393519246034,252
Western Blvd & 48th Pl,member,41.80570813703703,-87.683387192592591,180
Smith Park,casual,41.892053051124741,-87.689290426380353,489
Artesian Ave & Hubbard St,casual,41.8894998791202,-87.688209610552974,387
Damen Ave & Walnut (Lake) St,casual,41.885957276214832,-87.676984443734014,391
Ada St & 113th St,casual,41.687379,-87.655458952380968,14
Campbell Ave & Fullerton Ave,casual,41.9246288749283,-87.6893056194155,1259
May St & 69th St,casual,41.768928173913046,-87.652926014492763,46
Campbell Ave & Montrose Ave,casual,41.961530611359542,-87.691200528859966,568
Ravenswood Ave & Irving Park Rd,casual,41.954679182459117,-87.673874464890019,1182
Halsted St & Archer Ave,casual,41.847199714563857,-87.64680124376946,428
California Ave & 21st St,casual,41.853848368254965,-87.6957169914033,289
Halsted St & 63rd St,member,41.7793934197613,-87.644613467646749,92
Kilbourn Ave & Irving Park Rd,casual,41.953729875565614,-87.740607422322782,221
Prairie Ave & Garfield Blvd,casual,41.7948630345805,-87.618699176303849,294
MLK Jr Dr & 56th St,casual,41.79343234121356,-87.615857241010616,204
Cornell Dr & Hayes Dr,member,41.7805943030303,-87.584861206709974,154
State St & Pershing Rd,member,41.823089162866331,-87.626572496328379,202
Halsted St & 59th St,casual,41.787536448717951,-87.644879929487175,52
Central Park Ave & Ogden Ave,member,41.854090685960173,-87.714854747418855,136
Clark St & Touhy Ave,casual,42.012574086204232,-87.674357361788239,289
Princeton Ave & 47th St,casual,41.809318576220114,-87.633444609252876,116
Burnham Greenway & 105th St,casual,41.704598367687652,-87.52831574100928,33
St. Louis Ave & Balmoral Ave,member,41.980391980349282,-87.716108086001114,303
Maplewood Ave & Peterson Ave,member,41.990234081044683,-87.693357542370109,321
Austin Blvd & Madison St,casual,41.880285264276232,-87.774469213811443,251
Karlov Ave & Madison St,casual,41.880855415123449,-87.727910371913609,108
Normal Ave & Archer Ave,member,41.849547388832484,-87.640570730964484,985
Marshfield Ave & 44th St,casual,41.814001711678827,-87.666588748175172,137
Clinton St & 18th St,casual,41.857954388036809,-87.640825443507154,652
Pulaski Rd & Eddy St (Temp),casual,41.946268313186813,-87.73102266804031,364
Walden Pkwy & 100th St,casual,41.712216235666212,-87.667727870650566,22
Hermitage Ave & Polk St,casual,41.871512909618573,-87.669882254560534,402
Ashland Ave & 74th St,casual,41.759230242710075,-87.663478295208563,11
Halsted St & 78th St,casual,41.752496722031339,-87.643838002104118,45
Austin Blvd & Chicago Ave,casual,41.894891746781113,-87.7746409728183,233
Princeton Ave & 47th St,member,41.809314397645529,-87.633439855144644,159
Vernon Ave & 75th St,casual,41.7583735,-87.61414547067902,108
Cottage Grove Ave & 67th St,member,41.773718355778293,-87.6056232877311,119
Cottage Grove Ave & 83rd St,casual,41.74343431629628,-87.604833063703708,225
Stony Island Ave & 75th St,member,41.758680723021705,-87.586901044923223,178
Elizabeth St & 47th St,member,41.808401049382709,-87.656518820987657,27
W Oakdale Ave & N Broadway,casual,41.94,-87.64,164
Stony Island Ave & 67th St,member,41.773468093375882,-87.585324114461429,89
Cottage Grove Ave & 63rd St,member,41.780603245764731,-87.606077610649592,204
Bennett Ave & 79th St,casual,41.751793825980393,-87.578502840686284,68
2112 W Peterson Ave,casual,41.991178923588038,-87.683587310077527,301
Damen Ave & Walnut (Lake) St,member,41.88598280367232,-87.676997972457642,708
Wabash Ave & 87th St,member,41.736625627083335,-87.622624472916684,80
Hoyne Ave & 47th St,casual,41.808225375925922,-87.677188026851837,180
Central Ave & Lake St,member,41.887679650793658,-87.765475383597888,63
Yates Blvd & 75th St,member,41.758775364583336,-87.566438602083338,80
Central Ave & Chicago Ave,member,41.894965282634033,-87.764907984265733,286
Halsted St & 69th St,casual,41.769062119960282,-87.644613248265969,47
Cornell Dr & Hayes Dr,casual,41.780594758547011,-87.5848573114316,312
Elmwood Ave & Austin St,casual,42.025782748701971,-87.68410613084113,321
Ashland Ave & McDowell Ave,casual,41.808873118840573,-87.664533179710148,115
Wentworth Ave & 24th St (Temp),casual,41.850093105993352,-87.632137762770924,613
Halsted St & 96th St,casual,41.719712768977111,-87.642978085231491,23
Elizabeth St & 92nd St,casual,41.726801287186639,-87.654290633599231,118
Yates Blvd & 75th St,casual,41.758771788194451,-87.566435887152778,192
Stony Island Ave & 75th St,casual,41.758672294866344,-87.586973396678644,195
Wabash Ave & 83rd St,casual,41.743310037037041,-87.622832379629628,90
Kilbourn Ave & Milwaukee Ave,member,41.948812990990987,-87.740007250563053,296
Greenwood Ave & 79th St,casual,41.7512933946932,-87.597557898009953,201
Princeton Ave & Garfield Blvd,casual,41.794981293055557,-87.63309824861112,120
Stony Island Ave & South Chicago Ave,casual,41.75117140625,-87.585333145833346,80
State St & 95th St,member,41.7217302625,-87.622855408333336,24
Dodge Ave & Church St,member,42.048307077218723,-87.698261043675757,477
Throop St & Taylor St,casual,41.86893305327245,-87.65907210502283,219
Stony Island Ave & 71st St,member,41.766499031368014,-87.586485054052432,124
Hoyne Ave & 47th St,member,41.808235895638639,-87.677198820872277,107
Leavitt St & Division St (*),member,41.902999414634152,-87.683804878048775,656
Wabash Ave & 87th St,casual,41.736633613168728,-87.622627367283968,162
Perry Ave & 69th St,member,41.769297439999825,-87.628200612585459,94
Dauphin Ave & 103rd St,casual,41.707270521668313,-87.607673504540188,22
Bosworth Ave & Howard St,casual,42.019526228621281,-87.669564996509592,191
Warren Park East,member,42.004552773693845,-87.680663637144463,633
Racine Ave & Washington Blvd (*),casual,41.883093970873794,-87.6569892815534,103
Ashland Ave & McDowell Ave,member,41.8088955487013,-87.6644928809524,154
Cottage Grove Ave & 78th St,casual,41.753192227748684,-87.605025118673638,191
Halsted St & 59th St,member,41.787531200000011,-87.6448792,20
Vincennes Ave & 75th St,member,41.757981052631578,-87.631205482456139,19
State St & 76th St,casual,41.758492351851849,-87.624642477777783,45
South Chicago Ave & 83rd St,member,41.744008430555553,-87.575341861111113,12
Bosworth Ave & Howard St,member,42.019524289377294,-87.669574498168487,273
Latrobe Ave & Chicago Ave,casual,41.894740804012343,-87.756896350308622,108
Central Ave & Madison St,casual,41.880120481292515,-87.763234085034014,98
Vernon Ave & 107th St,casual,41.700205124366377,-87.612317032548688,39
Pulaski Rd & Congress Pkwy,member,41.874308516339873,-87.725712045751635,51
East End Ave & 87th St,casual,41.736816417532921,-87.582805302776833,30
Halsted St & 47th Pl,casual,41.808149819571888,-87.645621343895584,249
Vernon Ave & 79th St,member,41.75092342948718,-87.6137978525641,26
State St & 76th St,member,41.75699604761904,-87.624608619047621,21
Wentworth Ave & 35th St,member,41.830788516197778,-87.6325107203751,391
Stony Island Ave & 82nd St,member,41.746627468579234,-87.585983637978131,122
Damen Ave & 51st St,casual,41.800913818181819,-87.674684123376622,77
W Oakdale Ave & N Broadway,member,41.94,-87.64,151
Major Taylor Trail & 115th St,member,41.68494295951929,-87.645300753915919,10
Cicero Ave & Quincy St,member,41.877609492753621,-87.745405623188418,23
Laramie Ave & Madison St,member,41.880210573099419,-87.755340988304084,57
Cicero Ave & Lake St,casual,41.886834923245615,-87.745268471491229,76
Jeffery Blvd & 76th St,member,41.756942553235831,-87.57577968855972,72
State St & 54th St,member,41.796626554794514,-87.625919200913245,73
Albany Ave & 26th St,member,41.8444826349581,-87.702013328749032,157
Exchange Ave & 79th St,member,41.7541322875,-87.554179683333345,40
Kedzie Ave & Harrison St,casual,41.8736059899633,-87.704876622133938,113
Lincolnwood Dr & Central St,member,42.064861755167954,-87.715257895025871,516
Oglesby Ave & 100th St,casual,41.713343159455981,-87.56591027117986,62
Leavitt St & Division St (*),casual,41.902998928571414,-87.683808928571437,98
Cottage Grove Ave & 83rd St,member,41.743425072916672,-87.604832182291673,32
Ashland Ave & Pershing Rd,casual,41.8234689302721,-87.665581457483,98
Ashland Ave & 74th St,member,41.759199753032334,-87.663512197868343,8
Conservatory Dr & Lake St,member,41.88549845820895,-87.716667306467684,335
Halsted St & 69th St,member,41.769067474687546,-87.64461269959132,46
Dodge Ave & Church St,casual,42.048303539319249,-87.698255887323938,284
California Ave & 26th St,casual,41.84404001584133,-87.695300352413327,50
Halsted St & 56th St,casual,41.792941468197284,-87.644997408192864,70
Halsted St & 63rd St,casual,41.779388320055823,-87.644619128128866,150
Racine Ave & Garfield Blvd,casual,41.794226637978142,-87.655078262295078,244
Racine Ave & 65th St,member,41.775396066666666,-87.654304100000019,10
Racine Ave & Garfield Blvd,member,41.794210753164556,-87.655091740506336,79
Laramie Ave & Gladys Ave,casual,41.875809106060608,-87.755287810606063,44
Ashland Ave & 66th St,member,41.774080241666667,-87.663767808333333,20
Avenue O & 134th St,casual,41.651930048559386,-87.539631497490134,32
Avenue O & 118th St,casual,41.681023791925682,-87.537957435340076,12
Stewart Ave & 83rd St,casual,41.743716146341455,-87.634086577235792,41
Halsted St & 51st St,member,41.801816571117556,-87.6452124052,30
Wabash Ave & 83rd St,member,41.743316701550391,-87.622831852713162,43
Ewing Ave & Burnham Greenway,member,41.712748007396641,-87.534759846539544,9
Constance Ave & 95th St,casual,41.722577103585543,-87.579161230144422,17
Phillips Ave & 83rd St,casual,41.744527342896177,-87.565066872950808,122
Baltimore Ave & 87th St,member,41.737338830228495,-87.548463460466124,31
Central Ave & Harrison St,casual,41.8729934291939,-87.764496932461881,153
Elizabeth St & 59th St,casual,41.78669136,-87.65586064,25
Halsted St & 56th St,member,41.792950634202704,-87.645001948447913,16
Morgan St & Pershing Rd,member,41.823609904970766,-87.650923308479534,114
Woodlawn Ave & 75th St,casual,41.75916798765433,-87.595758567901242,27
Austin Blvd & Chicago Ave,member,41.894888654901962,-87.774593354901967,85
Kilbourn Ave & Milwaukee Ave,casual,41.948807036979176,-87.739955813020856,320
Throop St & 52nd St,member,41.799630722222226,-87.6570888888889,21
Wentworth Ave & 63rd St,member,41.780088189660944,-87.629727715902632,63
Western Blvd & 48th Pl,casual,41.805653318699186,-87.683350395121963,205
Marquette Ave & 89th St,casual,41.733690674213221,-87.558400469992037,36
Shields Ave & 43rd St,member,41.816205407136,-87.634813509819992,10
W Armitage Ave & N Sheffield Ave,casual,41.92,-87.65,44
Central Park Ave & 24th St,casual,41.848102043010755,-87.715071147311818,155
Cottage Grove Ave & 71st St,member,41.765709169910984,-87.604988055568626,17
Karlov Ave & Madison St,member,41.880863873983735,-87.727902756097549,41
California Ave & Lake St,casual,41.884463483417633,-87.6962111388994,275
Michigan Ave & 71st St,casual,41.765290583333339,-87.62174147115384,52
Houston Ave & 92nd St,casual,41.728203101009662,-87.5496741461103,65
Cottage Grove Ave & 71st St,casual,41.765714554088774,-87.604971272815362,65
Summit Ave & 86th St,casual,41.737857233550507,-87.644900461826509,35
Kenton Ave & Madison St,casual,41.880706744623666,-87.741018255376346,62
Summit Ave & 86th St,member,41.737866352157162,-87.6449143945159,14
Stony Island Ave & 82nd St,casual,41.746566456043958,-87.5860027069597,91
Damen Ave & Walnut (Lake) St (*),casual,41.885982447761194,-87.6770032238806,67
Loomis Blvd & 84th St,casual,41.741506824037451,-87.658410537468,94
Laramie Ave & Kinzie St,casual,41.887825606666659,-87.75553219666665,50
Walden Pkwy & 100th St,member,41.712219555555556,-87.667706694444448,6
Cottage Grove Ave & 111th Pl,casual,41.691736266351413,-87.610001540924074,26
Latrobe Ave & Chicago Ave,member,41.894734765432105,-87.7568919691358,27
Woodlawn Ave & 75th St,member,41.759176907407408,-87.5957715925926,36
Carpenter St & 63rd St,casual,41.779869000000005,-87.650908227272737,11
Ashland Ave & 78th St,casual,41.752213504319137,-87.663712813504759,68
Ashland Ave & 50th St,casual,41.803051616379314,-87.664672658045987,116
Major Taylor Trail & 115th St,casual,41.684956001031281,-87.645297097608037,23
Central Park Ave & 24th St,member,41.848104947619056,-87.7150843190476,35
Ashland Ave & 63rd St,member,41.779372462121216,-87.66485719696972,22
Eggleston Ave & 69th St (*),member,41.7688988,-87.6358856,10
Kedzie Ave & 24th St,member,41.848195023580232,-87.705413090879091,102
Eberhart Ave & 91st St,casual,41.729265880547118,-87.611820351525282,89
Ashland Ave & 78th St,member,41.75224262134445,-87.6637805793101,7
Marquette Ave & 89th St,member,41.733708516285894,-87.55842805402628,5
Eberhart Ave & 91st St,member,41.72926714170562,-87.611829489469528,5
Greenwood Ave & 91st St,member,41.728264268162725,-87.597298622131348,3
Cicero Ave & Flournoy St,casual,41.872131724358972,-87.74662185576922,52
MTL-ECO5.1-01,member,41.9171,-87.7482,3
Pulaski Rd & Lake St,member,41.885426640692636,-87.7264814177489,77
Eggleston Ave & 69th St,member,41.768898643518519,-87.635876645833335,72
Halsted St & 104th St,casual,41.705138225,-87.642382566666669,20
Ashland Ave & 69th St,member,41.76871074358975,-87.664074115384622,13
Michigan Ave & 71st St,member,41.765300074074084,-87.621752682098759,54
Stewart Ave & 63rd St,casual,41.779837531446539,-87.634776144654069,53
Cicero Ave & Lake St,member,41.886827359649118,-87.745304728070181,19
Calumet Ave & 71st St,member,41.7655047852886,-87.616917432017544,19
Eggleston Ave & 69th St,casual,41.768899302631588,-87.635872280701747,38
Damen Ave & 59th St,member,41.786011428571427,-87.674181142857122,7
Eggleston Ave & 92nd St,casual,41.7276206828919,-87.634879317103611,29
Eggleston Ave & 92nd St,member,41.72761778,-87.634882166666671,25
Phillips Ave & 83rd St,member,41.744528343589749,-87.565063307692313,65
Ewing Ave & Burnham Greenway,casual,41.712697534337565,-87.534698880940766,11
Throop St & 52nd St,casual,41.7996661638889,-87.6571585222222,60
Stony Island Ave & South Chicago Ave,member,41.751162128888893,-87.585362904444466,75
Evans Ave & 75th St,casual,41.758498749999987,-87.606396324275366,92
Cottage Grove Ave & 78th St,member,41.753182469298231,-87.605020570175455,38
Dauphin Ave & 103rd St,member,41.707321833333339,-87.607671,2
Dauphin Ave & 87th St,member,41.736528790456745,-87.60126762739111,9
State St & 123rd St,member,41.670674958333329,-87.622782,4
Ashland Ave & Garfield Blvd,member,41.792806245454543,-87.6644081939394,55
Ashland Ave & 66th St,casual,41.774075947916664,-87.663808083333322,32
Rhodes Ave & 71st St,member,41.766013833333332,-87.6117299642857,14
Vincennes Ave & 104th St,member,41.704960875,-87.657034541666661,4
South Chicago Ave & Elliot Ave,member,41.7473573,-87.58003703333334,5
Western Ave & 111th St,member,41.691219666666669,-87.681303333333332,1
Kenton Ave & Madison St,member,41.880704952380952,-87.741018357142863,14
Racine Ave & 61st St,casual,41.783194177083331,-87.654367010416649,16
Jeffery Blvd & 91st St,member,41.729759608825731,-87.575824222621932,8
Rhodes Ave & 71st St,casual,41.766,-87.611717,26
Stony Island Ave & 90th St,member,41.730832221651177,-87.585554457847593,4
Indiana Ave & 103rd St,member,41.70716935246049,-87.618455845203272,22
Stewart Ave & 83rd St,member,41.743697208333337,-87.634092347222222,12
Ellis Ave & 83rd St,member,41.744104571428572,-87.599096904761907,7
HUBBARD ST BIKE CHECKING (LBS-WH-TEST),casual,41.889962670647805,-87.680641771333271,51
Cicero Ave & Flournoy St,member,41.872109603174607,-87.746604269841285,21
Laramie Ave & Gladys Ave,member,41.875805708333331,-87.755297458333331,20
Halsted St & 51st St,casual,41.8018304235332,-87.645214101192977,76
Ashland Ave & 50th St,member,41.803021586666674,-87.664698593333327,25
Base - 2132 W Hubbard Warehouse,member,41.889925192772495,-87.680306873734978,7
Greenwood Ave & 79th St,member,41.751299358333341,-87.597609850000012,20
Homewood Ave & 115th St,casual,41.684595887091518,-87.670796093956241,16
Halsted St & 73rd St,member,41.761611822182324,-87.644152981847213,9
East End Ave & 87th St,member,41.736804095268354,-87.582850620601462,20
South Chicago Ave & Elliot Ave,casual,41.747361907407409,-87.58004421296296,18
Dauphin Ave & 87th St,casual,41.736521993907907,-87.601255439543,21
Seeley Ave & Garfield Blvd,member,41.794098805555556,-87.675474425925913,18
May St & 69th St,member,41.768929088235296,-87.652926421568623,17
Clyde Ave & 87th St,member,41.737168337318153,-87.572728322038444,6
HQ QR,casual,41.8899,-87.6803,4
Jeffery Blvd & 91st St,casual,41.729740280883817,-87.575899981747952,6
Marshfield Ave & 59th St,casual,41.78681701515152,-87.666197537878787,22
State St & 123rd St,casual,41.670675204097755,-87.622723832080425,9
Prospect Sq & 91st St,member,41.728033710256405,-87.6675978423077,26
Vincennes Ave & 104th St,casual,41.704955250000005,-87.657039527777769,6
Halsted St & 111th St,casual,41.692294114837225,-87.64269982408193,15
Loomis Blvd & 84th St,member,41.741534870650455,-87.65840363522,6
Kostner Ave & Lake St,member,41.885917683333332,-87.7353691,10
Carpenter St & 63rd St,member,41.779879000000008,-87.6509133,10
Hale Ave & 107th St,casual,41.699205194444446,-87.668867805555564,6
Western Ave & 111th St,casual,41.6912494780524,-87.681313921419559,6
Western Ave & 104th St,member,41.704554666666667,-87.681140666666664,1
Elizabeth St & 59th St,member,41.7866955,-87.6558795,8
Halsted St & 96th St,member,41.719719197741405,-87.642920643475861,7
Laramie Ave & Kinzie St,member,41.887822857142858,-87.755519285714286,21
Homewood Ave & 115th St,member,41.684615968453173,-87.670749166886651,3
Clyde Ave & 87th St,casual,41.737154244522692,-87.572735475450173,13
Commercial Ave & 130th St,casual,41.659147439631106,-87.550766838460518,21
Ashland Ave & 73rd St,casual,41.761225895811442,-87.663361834068283,7
Wentworth Ave & 104th St,casual,41.705327287878788,-87.629050121212117,11
Greenwood Ave & 97th St,member,41.718707015151516,-87.5969942121212,11
Cottage Grove Ave & 111th Pl,member,41.691698003388062,-87.609973692277009,5
Burnham Greenway & 105th St,member,41.704593073642151,-87.52830351809402,7
Bennett Ave & 79th St,member,41.751786805555554,-87.578491805555558,6
Constance Ave & 95th St,member,41.722232930714469,-87.578975179292684,4
Halsted St & 78th St,member,41.752495507494082,-87.643859661159411,5
Avenue O & 118th St,member,41.681064666666664,-87.53796233333334,1
Marshfield Ave & 59th St,member,41.786827083333336,-87.666190916666665,4
Stewart Ave & 63rd St (*),member,41.7798,-87.6348,4
Torrence Ave & 106th St,casual,41.702872458333331,-87.559902541666673,8
Halsted St & 111th St,member,41.692293916666664,-87.642690791666666,4
N Carpenter St & W Lake St,casual,41.89,-87.65,1
Torrence Ave & 126th Pl,member,41.666312008257258,-87.557215690612779,1
Damen Ave & 51st St,member,41.800904,-87.674692,6
